{"meta":{"LastUpdated":"2019-01-03T22:16:43.309Z","TotalResults":1,"Agreement":"Use of the APIs and any related data will be subject to the terms of the Open Licence and subject to terms and conditions","License":"https://www.openbanking.org.mx-tbd/open-licence","TermsOfUse":"https://www.openbanking.org.mx-tbd/terms"},"data":[{"Brand":[{"BrandName":"MÉXICO","ATM":[{"Identification":"999993654","SupportedLanguages":[],"SupportedCurrencies":["MXN"],"Branch":{"Identification":"N/A"},"Location":{"Site":{"Name":"AUTOTANQUES NIETO ABASOLO"},"PostalAddress":{"AddressLine":["PREDIO SAN ISIDRO"],"BuildingNumber":"KM. 24.2","StreetName":"AUTOPISTA LA PIEDAD-IRAPUATO","TownName":"ABASOLO","CountrySubDivision":["GUANAJUATO"],"Country":"MX","PostCode":"36970","GeoLocation":{"GeographicCoordinates":{"Latitude":"20.491167","Longitude":"-101.48688"}}}}},{"Identification":"999991463","SupportedLanguages":[],"SupportedCurrencies":["MXN"],"Branch":{"Identification":"1221"},"Location":{"Site":{"Name":"SUC. ABASOLO"},"PostalAddress":{"AddressLine":["CENTRO"],"BuildingNumber":"204","StreetName":"JUAREZ NTE.","TownName":"ABASOLO","CountrySubDivision":["GUANAJUATO"],"Country":"MX","PostCode":"36970","GeoLocation":{"GeographicCoordinates":{"Latitude":"20.453421","Longitude":"-101.528982"}}}}},{"Identification":"999995426","SupportedLanguages":[],"SupportedCurrencies":["MXN"],"Branch":{"Identification":"N/A"},"Location":{"Site":{"Name":"MUNICIPIO DE ABASOLO"},"PostalAddress":{"AddressLine":["CENTRO"],"BuildingNumber":"SN","StreetName":"LAZARO CARDENAS","TownName":"ABASOLO","CountrySubDivision":["TAMAULIPAS"],"Country":"MX","PostCode":"87760","GeoLocation":{"GeographicCoordinates":{"Latitude":"24.060727","Longitude":"-98.374209"}}}}},{"Identification":"999994212","SupportedLanguages":[],"SupportedCurrencies":["MXN"],"Branch":{"Identification":"N/A"},"Location":{"Site":{"Name":"OXXO ACAMBARO"},"PostalAddress":{"AddressLine":["EVERARDO MORALES"],"BuildingNumber":"1401","StreetName":"CARRETERA ACAMBARO MORELIA","TownName":"ACAMBARO","CountrySubDivision":["GUANAJUATO"],"Country":"MX","PostCode":"38670","GeoLocation":{"GeographicCoordinates":{"Latitude":"20.004283","Longitude":"-100.731048"}}}}},{"Identification":"999992921","SupportedLanguages":[],"SupportedCurrencies":["MXN"],"Branch":{"Identification":"N/A"},"Location":{"Site":{"Name":"MUNICIPIO ACANCEH"},"PostalAddress":{"AddressLine":["CENTRO"],"BuildingNumber":"SN","StreetName":"CALLE 23","TownName":"ACANCEH","CountrySubDivision":["YUCATAN"],"Country":"MX","PostCode":"97380","GeoLocation":{"GeographicCoordinates":{"Latitude":"20.812392","Longitude":"-89.453551"}}}}},{"Identification":"999992926","SupportedLanguages":[],"SupportedCurrencies":["MXN"],"Branch":{"Identification":"N/A"},"Location":{"Site":{"Name":"MANUFACTURERA LEE ACANCEH"},"PostalAddress":{"AddressLine":["XCANCHACAN"],"BuildingNumber":"2287","StreetName":"TABLAJE CATASTRAL","TownName":"ACANCEH","CountrySubDivision":["YUCATAN"],"Country":"MX","PostCode":"97380","GeoLocation":{"GeographicCoordinates":{"Latitude":"20.824791","Longitude":"-89.468347"}}}}},{"Identification":"999993154","SupportedLanguages":[],"SupportedCurrencies":["MXN"],"Branch":{"Identification":"N/A"},"Location":{"Site":{"Name":"MANUFACTURERA LEE ACANCEH 2"},"PostalAddress":{"AddressLine":["XCANCHACAN"],"BuildingNumber":"2287","StreetName":"TABLAJE CATASTRAL","TownName":"ACANCEH","CountrySubDivision":["YUCATAN"],"Country":"MX","PostCode":"97380","GeoLocation":{"GeographicCoordinates":{"Latitude":"20.824385","Longitude":"-89.468324"}}}}},{"Identification":"999992522","SupportedLanguages":[],"SupportedCurrencies":["MXN"],"Branch":{"Identification":"N/A"},"Location":{"Site":{"Name":"SERVICIO SIERRA HERMANOS"},"PostalAddress":{"AddressLine":["ACAPONETA"],"BuildingNumber":"1042","StreetName":"CARRETERA 15 MEXICO-NOGALES","TownName":"ACAPONETA","CountrySubDivision":["NAYARIT"],"Country":"MX","PostCode":"63400","GeoLocation":{"GeographicCoordinates":{"Latitude":"22.490936","Longitude":"-105.384237"}}}}},{"Identification":"999995319","SupportedLanguages":[],"SupportedCurrencies":["MXN"],"Branch":{"Identification":"N/A"},"Location":{"Site":{"Name":"BODEGA AURRERA COLOSO"},"PostalAddress":{"AddressLine":["COLOSO INFONAVIT"],"BuildingNumber":"SIN NUMERO","StreetName":"CARR. INTER. PUERTO MARQUEZ - LAS CRUCES","TownName":"ACAPULCO DE JUAREZ","CountrySubDivision":["GUERRERO"],"Country":"MX","PostCode":"39810","GeoLocation":{"GeographicCoordinates":{"Latitude":"16.852209","Longitude":"-99.810536"}}}}},{"Identification":"999995310","SupportedLanguages":[],"SupportedCurrencies":["MXN"],"Branch":{"Identification":"N/A"},"Location":{"Site":{"Name":"C.M. ACAPULCO CENTRO"},"PostalAddress":{"AddressLine":["CENTRO"],"BuildingNumber":"243","StreetName":"COSTERA MIGUEL ALEMAN","TownName":"ACAPULCO DE JUAREZ","CountrySubDivision":["GUERRERO"],"Country":"MX","PostCode":"39300","GeoLocation":{"GeographicCoordinates":{"Latitude":"16.853661","Longitude":"-99.900652"}}}}},{"Identification":"999995356","SupportedLanguages":[],"SupportedCurrencies":["MXN"],"Branch":{"Identification":"N/A"},"Location":{"Site":{"Name":"OXXO COLOSO"},"PostalAddress":{"AddressLine":["EL COLOSO INFONAVIT"],"BuildingNumber":"SIN NUMERO","StreetName":"CARRERTERA CAYACO PUERTO MARQUEZ","TownName":"ACAPULCO DE JUAREZ","CountrySubDivision":["GUERRERO"],"Country":"MX","PostCode":"39810","GeoLocation":{"GeographicCoordinates":{"Latitude":"16.84702","Longitude":"-99.811645"}}}}},{"Identification":"999991984","SupportedLanguages":[],"SupportedCurrencies":["MXN"],"Branch":{"Identification":"N/A"},"Location":{"Site":{"Name":"C.M. ACAPULCO VISTA ALEGRE"},"PostalAddress":{"AddressLine":["VISTA ALEGRE"],"BuildingNumber":"13","StreetName":"AV. RUIZ CORTINES","TownName":"ACAPULCO DE JUAREZ","CountrySubDivision":["GUERRERO"],"Country":"MX","PostCode":"39560","GeoLocation":{"GeographicCoordinates":{"Latitude":"16.874342","Longitude":"-99.898184"}}}}},{"Identification":"999991071","SupportedLanguages":[],"SupportedCurrencies":["MXN"],"Branch":{"Identification":"775"},"Location":{"Site":{"Name":"SUC. RENACIMIENTO (ACAPULCO)"},"PostalAddress":{"AddressLine":["RENACIMIENTO"],"BuildingNumber":"-","StreetName":"BOULEVARD JOSE LOPEZ PORTILLO","TownName":"ACAPULCO DE JUAREZ","CountrySubDivision":["GUERRERO"],"Country":"MX","PostCode":"39715","GeoLocation":{"GeographicCoordinates":{"Latitude":"16.897944","Longitude":"-99.830405"}}}}},{"Identification":"999990146","SupportedLanguages":[],"SupportedCurrencies":["MXN"],"Branch":{"Identification":"76"},"Location":{"Site":{"Name":"SUC. ACAPULCO CENTRO"},"PostalAddress":{"AddressLine":["CENTRO"],"BuildingNumber":"7","StreetName":"JESUS CARRANZA","TownName":"ACAPULCO DE JUAREZ","CountrySubDivision":["GUERRERO"],"Country":"MX","PostCode":"39300","GeoLocation":{"GeographicCoordinates":{"Latitude":"16.849362","Longitude":"-99.907911"}}}}},{"Identification":"999995397","SupportedLanguages":[],"SupportedCurrencies":["MXN"],"Branch":{"Identification":"N/A"},"Location":{"Site":{"Name":"CHEDRAUI ACAPULCO DIAMANTE"},"PostalAddress":{"AddressLine":["PLAYA DIAMANTE"],"BuildingNumber":"1817","StreetName":"BLVD. LAS NACIONES","TownName":"ACAPULCO DE JUAREZ","CountrySubDivision":["GUERRERO"],"Country":"MX","PostCode":"39897","GeoLocation":{"GeographicCoordinates":{"Latitude":"16.771529","Longitude":"-99.773973"}}}}},{"Identification":"999995297","SupportedLanguages":[],"SupportedCurrencies":["MXN","USD"],"Branch":{"Identification":"N/A"},"Location":{"Site":{"Name":"WALMART ACAPULCO"},"PostalAddress":{"AddressLine":["PARTIDO IGLESIAS"],"BuildingNumber":"500","StreetName":"AV COSTERA MIGUEL ALEMAN","TownName":"ACAPULCO DE JUAREZ","CountrySubDivision":["GUERRERO"],"Country":"MX","PostCode":"23400","GeoLocation":{"GeographicCoordinates":{"Latitude":"16.844833","Longitude":"-99.84806"}}}}},{"Identification":"999995300","SupportedLanguages":[],"SupportedCurrencies":["MXN"],"Branch":{"Identification":"N/A"},"Location":{"Site":{"Name":"TRIBUNAL SUPERIOR DE JUSTICIA ZAPATA"},"PostalAddress":{"AddressLine":["ZAPATA"],"BuildingNumber":"-","StreetName":"CALLE DE FOOTBALL","TownName":"ACAPULCO DE JUAREZ","CountrySubDivision":["GUERRERO"],"Country":"MX","PostCode":"39000","GeoLocation":{"GeographicCoordinates":{"Latitude":"16.895806","Longitude":"-99.842903"}}}}},{"Identification":"999990144","SupportedLanguages":[],"SupportedCurrencies":["MXN"],"Branch":{"Identification":"75"},"Location":{"Site":{"Name":"SUC.ACAPULCO COSTERA"},"PostalAddress":{"AddressLine":["FRACC MAGALLANES"],"BuildingNumber":"202","StreetName":"AV. COSTERA MIGUEL ALEMAN","TownName":"ACAPULCO DE JUAREZ","CountrySubDivision":["GUERRERO"],"Country":"MX","PostCode":"39670","GeoLocation":{"GeographicCoordinates":{"Latitude":"16.861704","Longitude":"-99.878884"}}}}},{"Identification":"999995357","SupportedLanguages":[],"SupportedCurrencies":["MXN"],"Branch":{"Identification":"N/A"},"Location":{"Site":{"Name":"SORIANA MERCADO/GIGANTE ACAPULCO CENTRO"},"PostalAddress":{"AddressLine":["FRACC. HORNOS"],"BuildingNumber":"SIN NUMERO","StreetName":"AV. CUAUHTEMOC","TownName":"ACAPULCO DE JUAREZ","CountrySubDivision":["GUERRERO"],"Country":"MX","PostCode":"39300","GeoLocation":{"GeographicCoordinates":{"Latitude":"16.859308","Longitude":"-99.89343"}}}}},{"Identification":"999995370","SupportedLanguages":[],"SupportedCurrencies":["MXN","USD"],"Branch":{"Identification":"N/A"},"Location":{"Site":{"Name":"GALERIAS DIANA"},"PostalAddress":{"AddressLine":["FRACC. MAGALLANES"],"BuildingNumber":"1926","StreetName":"AV. COSTERA MIGUEL ALEMAN","TownName":"ACAPULCO DE JUAREZ","CountrySubDivision":["GUERRERO"],"Country":"MX","PostCode":"39670","GeoLocation":{"GeographicCoordinates":{"Latitude":"16.860403","Longitude":"-99.873554"}}}}},{"Identification":"999991623","SupportedLanguages":[],"SupportedCurrencies":["MXN"],"Branch":{"Identification":"1905"},"Location":{"Site":{"Name":"SUC. CUAUHTEMOC"},"PostalAddress":{"AddressLine":["FRACC. HORNOS"],"BuildingNumber":"LOTE 6 Y 7","StreetName":"ANDRES DE URDANETA","TownName":"ACAPULCO DE JUAREZ","CountrySubDivision":["GUERRERO"],"Country":"MX","PostCode":"39350","GeoLocation":{"GeographicCoordinates":{"Latitude":"16.858639","Longitude":"-99.894348"}}}}},{"Identification":"999990147","SupportedLanguages":[],"SupportedCurrencies":["MXN"],"Branch":{"Identification":"76"},"Location":{"Site":{"Name":"SUC. ACAPULCO CENTRO"},"PostalAddress":{"AddressLine":["CENTRO"],"BuildingNumber":"7","StreetName":"JESUS CARRANZA","TownName":"ACAPULCO DE JUAREZ","CountrySubDivision":["GUERRERO"],"Country":"MX","PostCode":"39300","GeoLocation":{"GeographicCoordinates":{"Latitude":"16.849362","Longitude":"-99.907911"}}}}},{"Identification":"999995338","SupportedLanguages":[],"SupportedCurrencies":["MXN"],"Branch":{"Identification":"N/A"},"Location":{"Site":{"Name":"CHEDRAUI ACAPULCO"},"PostalAddress":{"AddressLine":["BARRIO DEL PASITO"],"BuildingNumber":"239","StreetName":"CALZADA PIE DE LA CUESTA","TownName":"ACAPULCO DE JUAREZ","CountrySubDivision":["GUERRERO"],"Country":"MX","PostCode":"39480","GeoLocation":{"GeographicCoordinates":{"Latitude":"16.857762","Longitude":"-99.916066"}}}}},{"Identification":"999995351","SupportedLanguages":[],"SupportedCurrencies":["MXN"],"Branch":{"Identification":"N/A"},"Location":{"Site":{"Name":"WALMART DIAMANTE"},"PostalAddress":{"AddressLine":["FRACC. GRANJAS DEL MARQUEZ"],"BuildingNumber":"802","StreetName":"BLVD. DE LAS NACIONES","TownName":"ACAPULCO DE JUAREZ","CountrySubDivision":["GUERRERO"],"Country":"MX","PostCode":"39887","GeoLocation":{"GeographicCoordinates":{"Latitude":"16.797197","Longitude":"-99.809928"}}}}},{"Identification":"999990145","SupportedLanguages":[],"SupportedCurrencies":["MXN"],"Branch":{"Identification":"76"},"Location":{"Site":{"Name":"SUC. ACAPULCO CENTRO"},"PostalAddress":{"AddressLine":["CENTRO"],"BuildingNumber":"7","StreetName":"JESUS CARRANZA","TownName":"ACAPULCO DE JUAREZ","CountrySubDivision":["GUERRERO"],"Country":"MX","PostCode":"39300","GeoLocation":{"GeographicCoordinates":{"Latitude":"16.849362","Longitude":"-99.907911"}}}}},{"Identification":"999995384","SupportedLanguages":[],"SupportedCurrencies":["MXN"],"Branch":{"Identification":"N/A"},"Location":{"Site":{"Name":"SORIANA MERCADO GIGANTE ACAPULCO RENACIMIENTO"},"PostalAddress":{"AddressLine":["RENACIMIENTO"],"BuildingNumber":"KM. 4.5","StreetName":"CARR. MEXICO-ACAPULCO","TownName":"ACAPULCO DE JUAREZ","CountrySubDivision":["GUERRERO"],"Country":"MX","PostCode":"39715","GeoLocation":{"GeographicCoordinates":{"Latitude":"16.898551","Longitude":"-99.829592"}}}}},{"Identification":"999995381","SupportedLanguages":[],"SupportedCurrencies":["MXN"],"Branch":{"Identification":"N/A"},"Location":{"Site":{"Name":"SORIANA MERCADO GIGANTE ACAPULCO SOL"},"PostalAddress":{"AddressLine":["FRACC. COSTA AZUL"],"BuildingNumber":"2803","StreetName":"AV. COSTERA MIGUEL ALEMAN","TownName":"ACAPULCO DE JUAREZ","CountrySubDivision":["GUERRERO"],"Country":"MX","PostCode":"39850","GeoLocation":{"GeographicCoordinates":{"Latitude":"16.851548","Longitude":"-99.853858"}}}}},{"Identification":"999991070","SupportedLanguages":[],"SupportedCurrencies":["MXN"],"Branch":{"Identification":"775"},"Location":{"Site":{"Name":"SUC. RENACIMIENTO (ACAPULCO)"},"PostalAddress":{"AddressLine":["RENACIMIENTO"],"BuildingNumber":"-","StreetName":"BOULEVARD JOSE LOPEZ PORTILLO","TownName":"ACAPULCO DE JUAREZ","CountrySubDivision":["GUERRERO"],"Country":"MX","PostCode":"39715","GeoLocation":{"GeographicCoordinates":{"Latitude":"16.897944","Longitude":"-99.830405"}}}}},{"Identification":"999991691","SupportedLanguages":[],"SupportedCurrencies":["MXN"],"Branch":{"Identification":"1993"},"Location":{"Site":{"Name":"ZONA DIAMANTE"},"PostalAddress":{"AddressLine":["GRANJAS DEL MARQUEZ"],"BuildingNumber":"402","StreetName":"BOULEVARD DE LAS NACIONES","TownName":"ACAPULCO DE JUAREZ","CountrySubDivision":["GUERRERO"],"Country":"MX","PostCode":"39907","GeoLocation":{"GeographicCoordinates":{"Latitude":"16.797546","Longitude":"-99.810492"}}}}},{"Identification":"999995312","SupportedLanguages":[],"SupportedCurrencies":["MXN"],"Branch":{"Identification":"N/A"},"Location":{"Site":{"Name":"C.M. BODEGA ACAPULCO RENACIMIENTO"},"PostalAddress":{"AddressLine":["ZAPATA"],"BuildingNumber":"718","StreetName":"CARRETERA FEDERAL ACAPULCO-MEXICO","TownName":"ACAPULCO DE JUAREZ","CountrySubDivision":["GUERRERO"],"Country":"MX","PostCode":"39750","GeoLocation":{"GeographicCoordinates":{"Latitude":"16.900034","Longitude":"-99.831391"}}}}},{"Identification":"999995395","SupportedLanguages":[],"SupportedCurrencies":["MXN"],"Branch":{"Identification":"N/A"},"Location":{"Site":{"Name":"CHEDRAUI ACAPULCO CAYACO"},"PostalAddress":{"AddressLine":["LA SABANA"],"BuildingNumber":"SN","StreetName":"AV. LAZARO CARDENAS","TownName":"ACAPULCO DE JUAREZ","CountrySubDivision":["GUERRERO"],"Country":"MX","PostCode":"39799","GeoLocation":{"GeographicCoordinates":{"Latitude":"16.861969","Longitude":"-99.80957"}}}}},{"Identification":"999995292","SupportedLanguages":[],"SupportedCurrencies":["MXN"],"Branch":{"Identification":"N/A"},"Location":{"Site":{"Name":"TELMEX HIDALGO"},"PostalAddress":{"AddressLine":["CENTRO"],"BuildingNumber":"17","StreetName":"HIDALGO","TownName":"ACAPULCO DE JUAREZ","CountrySubDivision":["GUERRERO"],"Country":"MX","PostCode":"39300","GeoLocation":{"GeographicCoordinates":{"Latitude":"16.847899","Longitude":"-99.910532"}}}}},{"Identification":"999995376","SupportedLanguages":[],"SupportedCurrencies":["MXN"],"Branch":{"Identification":"N/A"},"Location":{"Site":{"Name":"SORIANA HIPERMERCADO SENDERO ACAPULCO"},"PostalAddress":{"AddressLine":["EJIDO CAYACOS"],"BuildingNumber":"244","StreetName":"CARR. PUERTO MARQUEZ -LAS CRUCES","TownName":"ACAPULCO DE JUAREZ","CountrySubDivision":["GUERRERO"],"Country":"MX","PostCode":"39905","GeoLocation":{"GeographicCoordinates":{"Latitude":"16.832812","Longitude":"-99.811126"}}}}},{"Identification":"999995394","SupportedLanguages":[],"SupportedCurrencies":["MXN"],"Branch":{"Identification":"N/A"},"Location":{"Site":{"Name":"WOOLWORTH ACAPULCO"},"PostalAddress":{"AddressLine":["FRACC. HORNOS"],"BuildingNumber":"703","StreetName":"AV. CUAUHTEMOC","TownName":"ACAPULCO DE JUAREZ","CountrySubDivision":["GUERRERO"],"Country":"MX","PostCode":"39355","GeoLocation":{"GeographicCoordinates":{"Latitude":"16.857475","Longitude":"-99.899634"}}}}},{"Identification":"999990776","SupportedLanguages":[],"SupportedCurrencies":["MXN"],"Branch":{"Identification":"509"},"Location":{"Site":{"Name":"SUC.PLAZA DORADA ACAPULCO"},"PostalAddress":{"AddressLine":["FRACC. COSTA AZUL"],"BuildingNumber":"38","StreetName":"COSTERA MIGUEL ALEMAN","TownName":"ACAPULCO DE JUAREZ","CountrySubDivision":["GUERRERO"],"Country":"MX","PostCode":"39670","GeoLocation":{"GeographicCoordinates":{"Latitude":"16.848091","Longitude":"-99.850242"}}}}},{"Identification":"999995307","SupportedLanguages":[],"SupportedCurrencies":["MXN"],"Branch":{"Identification":"N/A"},"Location":{"Site":{"Name":"BODEGA AURRERA RENACIMIENTO"},"PostalAddress":{"AddressLine":["FRACC. LIBERTAD"],"BuildingNumber":"SIN NUMERO","StreetName":"AV. LOPEZ PORTILLO","TownName":"ACAPULCO DE JUAREZ","CountrySubDivision":["GUERRERO"],"Country":"MX","PostCode":"39715","GeoLocation":{"GeographicCoordinates":{"Latitude":"16.890824","Longitude":"-99.835936"}}}}},{"Identification":"999995308","SupportedLanguages":[],"SupportedCurrencies":["MXN"],"Branch":{"Identification":"N/A"},"Location":{"Site":{"Name":"C.M. ACAPULCO LA DIANA"},"PostalAddress":{"AddressLine":["FRACC FARALLON"],"BuildingNumber":"216","StreetName":"AV. FARALLON DEL OBISPO","TownName":"ACAPULCO DE JUAREZ","CountrySubDivision":["GUERRERO"],"Country":"MX","PostCode":"39690","GeoLocation":{"GeographicCoordinates":{"Latitude":"16.861897","Longitude":"-99.869683"}}}}},{"Identification":"999995372","SupportedLanguages":[],"SupportedCurrencies":["MXN"],"Branch":{"Identification":"N/A"},"Location":{"Site":{"Name":"C.J.F. ACAPULCO"},"PostalAddress":{"AddressLine":["FRAC. GRANJAS DEL MARQUEZ"],"BuildingNumber":"640 GRANJA","StreetName":"BLVD. DE LAS NACIONES","TownName":"ACAPULCO DE JUAREZ","CountrySubDivision":["GUERRERO"],"Country":"MX","PostCode":"39890","GeoLocation":{"GeographicCoordinates":{"Latitude":"16.798873","Longitude":"-99.814022"}}}}},{"Identification":"999991072","SupportedLanguages":[],"SupportedCurrencies":["MXN"],"Branch":{"Identification":"775"},"Location":{"Site":{"Name":"SUC. RENACIMIENTO (ACAPULCO)"},"PostalAddress":{"AddressLine":["RENACIMIENTO"],"BuildingNumber":"-","StreetName":"BOULEVARD JOSE LOPEZ PORTILLO","TownName":"ACAPULCO DE JUAREZ","CountrySubDivision":["GUERRERO"],"Country":"MX","PostCode":"39715","GeoLocation":{"GeographicCoordinates":{"Latitude":"16.897944","Longitude":"-99.830405"}}}}},{"Identification":"999990777","SupportedLanguages":[],"SupportedCurrencies":["MXN"],"Branch":{"Identification":"509"},"Location":{"Site":{"Name":"SUC.PLAZA DORADA ACAPULCO"},"PostalAddress":{"AddressLine":["FRACC. COSTA AZUL"],"BuildingNumber":"38","StreetName":"COSTERA MIGUEL ALEMAN","TownName":"ACAPULCO DE JUAREZ","CountrySubDivision":["GUERRERO"],"Country":"MX","PostCode":"39670","GeoLocation":{"GeographicCoordinates":{"Latitude":"16.848091","Longitude":"-99.850242"}}}}},{"Identification":"999995365","SupportedLanguages":[],"SupportedCurrencies":["MXN"],"Branch":{"Identification":"N/A"},"Location":{"Site":{"Name":"C.M. MEGA ACAPULCO"},"PostalAddress":{"AddressLine":["GRANJAS MARQUEZ"],"BuildingNumber":"52","StreetName":"BLVD. DE LAS NACIONES","TownName":"ACAPULCO DE JUAREZ","CountrySubDivision":["GUERRERO"],"Country":"MX","PostCode":"39907","GeoLocation":{"GeographicCoordinates":{"Latitude":"16.794463","Longitude":"-99.807875"}}}}},{"Identification":"999991622","SupportedLanguages":[],"SupportedCurrencies":["MXN"],"Branch":{"Identification":"1905"},"Location":{"Site":{"Name":"SUC. CUAUHTEMOC"},"PostalAddress":{"AddressLine":["FRACC. HORNOS"],"BuildingNumber":"LOTE 6 Y 7","StreetName":"ANDRES DE URDANETA","TownName":"ACAPULCO DE JUAREZ","CountrySubDivision":["GUERRERO"],"Country":"MX","PostCode":"39350","GeoLocation":{"GeographicCoordinates":{"Latitude":"16.858639","Longitude":"-99.894348"}}}}},{"Identification":"999995377","SupportedLanguages":[],"SupportedCurrencies":["MXN"],"Branch":{"Identification":"N/A"},"Location":{"Site":{"Name":"PLAZA SENDERO ACAPULCO"},"PostalAddress":{"AddressLine":["EJIDO CAYACOS"],"BuildingNumber":"SIN NUMERO","StreetName":"CARR. PUERTO MARQUEZ-LAS CRUCES","TownName":"ACAPULCO DE JUAREZ","CountrySubDivision":["GUERRERO"],"Country":"MX","PostCode":"39905","GeoLocation":{"GeographicCoordinates":{"Latitude":"16.833227","Longitude":"-99.811639"}}}}},{"Identification":"999995302","SupportedLanguages":[],"SupportedCurrencies":["MXN"],"Branch":{"Identification":"N/A"},"Location":{"Site":{"Name":"SAMS CLUB ACAPULCO"},"PostalAddress":{"AddressLine":["FRACCIONAMIENTO FARALLON DEL OBISPO"],"BuildingNumber":"N/A","StreetName":"AV FARALLON","TownName":"ACAPULCO DE JUAREZ","CountrySubDivision":["GUERRERO"],"Country":"MX","PostCode":"39990","GeoLocation":{"GeographicCoordinates":{"Latitude":"16.864456","Longitude":"-99.869947"}}}}},{"Identification":"999995299","SupportedLanguages":[],"SupportedCurrencies":["MXN"],"Branch":{"Identification":"N/A"},"Location":{"Site":{"Name":"TRIBUNAL SUPERIOR DE JUSTICIA (GRAN VIA)"},"PostalAddress":{"AddressLine":["FRACCIONAMIENTO LAS PLAYAS"],"BuildingNumber":"na","StreetName":"AV GRAN VIA TROPICAL","TownName":"ACAPULCO DE JUAREZ","CountrySubDivision":["GUERRERO"],"Country":"MX","PostCode":"39390","GeoLocation":{"GeographicCoordinates":{"Latitude":"16.832564","Longitude":"-99.902765"}}}}},{"Identification":"999991692","SupportedLanguages":[],"SupportedCurrencies":["MXN"],"Branch":{"Identification":"1993"},"Location":{"Site":{"Name":"ZONA DIAMANTE"},"PostalAddress":{"AddressLine":["GRANJAS DEL MARQUEZ"],"BuildingNumber":"402","StreetName":"BOULEVARD DE LAS NACIONES","TownName":"ACAPULCO DE JUAREZ","CountrySubDivision":["GUERRERO"],"Country":"MX","PostCode":"39907","GeoLocation":{"GeographicCoordinates":{"Latitude":"16.797546","Longitude":"-99.810492"}}}}},{"Identification":"999990143","SupportedLanguages":[],"SupportedCurrencies":["MXN"],"Branch":{"Identification":"75"},"Location":{"Site":{"Name":"SUC.ACAPULCO COSTERA"},"PostalAddress":{"AddressLine":["FRACC MAGALLANES"],"BuildingNumber":"202","StreetName":"AV. COSTERA MIGUEL ALEMAN","TownName":"ACAPULCO DE JUAREZ","CountrySubDivision":["GUERRERO"],"Country":"MX","PostCode":"39670","GeoLocation":{"GeographicCoordinates":{"Latitude":"16.861704","Longitude":"-99.878884"}}}}},{"Identification":"999995284","SupportedLanguages":[],"SupportedCurrencies":["MXN"],"Branch":{"Identification":"N/A"},"Location":{"Site":{"Name":"OMA AEROPUERTO DE ACAPULCO"},"PostalAddress":{"AddressLine":["AEROPUERTO"],"BuildingNumber":"NA","StreetName":"CARRETERA ZIHUTANEJO- ACAPULCO","TownName":"ACAPULCO DE JUAREZ","CountrySubDivision":["GUERRERO"],"Country":"MX","PostCode":"39907","GeoLocation":{"GeographicCoordinates":{"Latitude":"16.762057","Longitude":"-99.754441"}}}}},{"Identification":"999993011","SupportedLanguages":[],"SupportedCurrencies":["MXN"],"Branch":{"Identification":"N/A"},"Location":{"Site":{"Name":"SERVICIO EL REFUGIO ACATIC"},"PostalAddress":{"AddressLine":["ACATIC"],"BuildingNumber":"KM 137.5","StreetName":"CARR. LAGOS DE GUADALUPE","TownName":"ACATIC","CountrySubDivision":["JALISCO"],"Country":"MX","PostCode":"45475","GeoLocation":{"GeographicCoordinates":{"Latitude":"20.721837","Longitude":"-102.905633"}}}}},{"Identification":"999990301","SupportedLanguages":[],"SupportedCurrencies":["MXN"],"Branch":{"Identification":"175"},"Location":{"Site":{"Name":"SUC. ACATIC"},"PostalAddress":{"AddressLine":["CENTRO"],"BuildingNumber":"43","StreetName":"HIDALGO","TownName":"ACATIC","CountrySubDivision":["JALISCO"],"Country":"MX","PostCode":"45470","GeoLocation":{"GeographicCoordinates":{"Latitude":"20.78037","Longitude":"-102.909745"}}}}},{"Identification":"999992804","SupportedLanguages":[],"SupportedCurrencies":["MXN"],"Branch":{"Identification":"N/A"},"Location":{"Site":{"Name":"MI BODEGA ACATLAN"},"PostalAddress":{"AddressLine":["BARRIO SAN LUIS"],"BuildingNumber":"22","StreetName":"AVENIDA INDEPENDENCIA","TownName":"ACATLAN","CountrySubDivision":["PUEBLA"],"Country":"MX","PostCode":"74949","GeoLocation":{"GeographicCoordinates":{"Latitude":"18.197953","Longitude":"-98.048378"}}}}},{"Identification":"999995442","SupportedLanguages":[],"SupportedCurrencies":["MXN"],"Branch":{"Identification":"N/A"},"Location":{"Site":{"Name":"SIGMA ALIMENTOS CENTRO"},"PostalAddress":{"AddressLine":["--"],"BuildingNumber":"-","StreetName":"CARR ATITALAQUIA -REFINERIA","TownName":"ACATLAN","CountrySubDivision":["HIDALGO"],"Country":"MX","PostCode":"42970","GeoLocation":{"GeographicCoordinates":{"Latitude":"20.050604","Longitude":"-99.256992"}}}}},{"Identification":"999991082","SupportedLanguages":[],"SupportedCurrencies":["MXN"],"Branch":{"Identification":"782"},"Location":{"Site":{"Name":"SUC. ACATLAN"},"PostalAddress":{"AddressLine":["CENTRO"],"BuildingNumber":"8","StreetName":"AV. REFORMA","TownName":"ACATLAN","CountrySubDivision":["PUEBLA"],"Country":"MX","PostCode":"74940","GeoLocation":{"GeographicCoordinates":{"Latitude":"18.202223","Longitude":"-98.04982"}}}}},{"Identification":"999991081","SupportedLanguages":[],"SupportedCurrencies":["MXN"],"Branch":{"Identification":"782"},"Location":{"Site":{"Name":"SUC. ACATLAN"},"PostalAddress":{"AddressLine":["CENTRO"],"BuildingNumber":"8","StreetName":"AV. REFORMA","TownName":"ACATLAN","CountrySubDivision":["PUEBLA"],"Country":"MX","PostCode":"74940","GeoLocation":{"GeographicCoordinates":{"Latitude":"18.202223","Longitude":"-98.04982"}}}}},{"Identification":"999992062","SupportedLanguages":[],"SupportedCurrencies":["MXN"],"Branch":{"Identification":"N/A"},"Location":{"Site":{"Name":"INGENIO BELLAVISTA"},"PostalAddress":{"AddressLine":["MUNICIPIO BELLAVISTA"],"BuildingNumber":"18","StreetName":"AV. DEL TRABAJO","TownName":"ACATLAN DE JUAREZ","CountrySubDivision":["JALISCO"],"Country":"MX","PostCode":"45720","GeoLocation":{"GeographicCoordinates":{"Latitude":"20.434776","Longitude":"-103.63367"}}}}},{"Identification":"999991307","SupportedLanguages":[],"SupportedCurrencies":["MXN"],"Branch":{"Identification":"1017"},"Location":{"Site":{"Name":"SUC. ACAYUCAN"},"PostalAddress":{"AddressLine":["CENTRO"],"BuildingNumber":"7","StreetName":"VICTORIA","TownName":"ACAYUCAN","CountrySubDivision":["VERACRUZ"],"Country":"MX","PostCode":"96100","GeoLocation":{"GeographicCoordinates":{"Latitude":"17.948213","Longitude":"-94.912682"}}}}},{"Identification":"999991308","SupportedLanguages":[],"SupportedCurrencies":["MXN"],"Branch":{"Identification":"1017"},"Location":{"Site":{"Name":"SUC. ACAYUCAN"},"PostalAddress":{"AddressLine":["CENTRO"],"BuildingNumber":"7","StreetName":"VICTORIA","TownName":"ACAYUCAN","CountrySubDivision":["VERACRUZ"],"Country":"MX","PostCode":"96100","GeoLocation":{"GeographicCoordinates":{"Latitude":"17.948213","Longitude":"-94.912682"}}}}},{"Identification":"999994099","SupportedLanguages":[],"SupportedCurrencies":["MXN"],"Branch":{"Identification":"N/A"},"Location":{"Site":{"Name":"CHEDRAUI ACAYUCAN"},"PostalAddress":{"AddressLine":["BARRIO DE LA PALMA"],"BuildingNumber":"711","StreetName":"AV, JUAN DE LA LUZ ENRIQUEZ","TownName":"ACAYUCAN","CountrySubDivision":["VERACRUZ"],"Country":"MX","PostCode":"96056","GeoLocation":{"GeographicCoordinates":{"Latitude":"17.955888","Longitude":"-94.919821"}}}}},{"Identification":"999992104","SupportedLanguages":[],"SupportedCurrencies":["MXN"],"Branch":{"Identification":"N/A"},"Location":{"Site":{"Name":"COMERCIAL MEXICANA DE PINTURAS"},"PostalAddress":{"AddressLine":["TEPEXPAN"],"BuildingNumber":"6","StreetName":"MARCOS  ACHAR LOBATON","TownName":"ACOLMAN","CountrySubDivision":["ESTADO DE MEXICO"],"Country":"MX","PostCode":"55885","GeoLocation":{"GeographicCoordinates":{"Latitude":"19.609077","Longitude":"-98.936979"}}}}},{"Identification":"999993543","SupportedLanguages":[],"SupportedCurrencies":["MXN"],"Branch":{"Identification":"N/A"},"Location":{"Site":{"Name":"COMERCIAL MEXICANA DE PINTURAS"},"PostalAddress":{"AddressLine":["TEPEXPAN"],"BuildingNumber":"6","StreetName":"MARCOS  ACHAR LOBATON","TownName":"ACOLMAN","CountrySubDivision":["ESTADO DE MEXICO"],"Country":"MX","PostCode":"55885","GeoLocation":{"GeographicCoordinates":{"Latitude":"19.608959","Longitude":"-98.936969"}}}}},{"Identification":"999991296","SupportedLanguages":[],"SupportedCurrencies":["MXN"],"Branch":{"Identification":"992"},"Location":{"Site":{"Name":"SUC. ACTOPAN"},"PostalAddress":{"AddressLine":["CENTRO"],"BuildingNumber":"3","StreetName":"PLAZA JUAREZ","TownName":"ACTOPAN","CountrySubDivision":["HIDALGO"],"Country":"MX","PostCode":"42500","GeoLocation":{"GeographicCoordinates":{"Latitude":"20.269146","Longitude":"-98.944626"}}}}},{"Identification":"999995496","SupportedLanguages":[],"SupportedCurrencies":["MXN"],"Branch":{"Identification":"N/A"},"Location":{"Site":{"Name":"C.M. BODEGA ACTOPAN"},"PostalAddress":{"AddressLine":["ACTOPAN CENTRO"],"BuildingNumber":"118-A","StreetName":"CARRETERA MEXICO-LAREDO KM 120","TownName":"ACTOPAN","CountrySubDivision":["HIDALGO"],"Country":"MX","PostCode":"42500","GeoLocation":{"GeographicCoordinates":{"Latitude":"20.276288","Longitude":"-98.952559"}}}}},{"Identification":"999991297","SupportedLanguages":[],"SupportedCurrencies":["MXN"],"Branch":{"Identification":"992"},"Location":{"Site":{"Name":"SUC. ACTOPAN"},"PostalAddress":{"AddressLine":["CENTRO"],"BuildingNumber":"3","StreetName":"PLAZA JUAREZ","TownName":"ACTOPAN","CountrySubDivision":["HIDALGO"],"Country":"MX","PostCode":"42500","GeoLocation":{"GeographicCoordinates":{"Latitude":"20.269146","Longitude":"-98.944626"}}}}},{"Identification":"999995288","SupportedLanguages":[],"SupportedCurrencies":["MXN"],"Branch":{"Identification":"N/A"},"Location":{"Site":{"Name":"W.E.T. SISTEMAS AUTOMOTRICES 2"},"PostalAddress":{"AddressLine":["PARQUE INDUSTRIAL"],"BuildingNumber":"KM. 7","StreetName":"CARRETERA PRESA LA AMISTAD","TownName":"ACUNA","CountrySubDivision":["COAHUILA"],"Country":"MX","PostCode":"26220","GeoLocation":{"GeographicCoordinates":{"Latitude":"29.340207","Longitude":"-100.996611"}}}}},{"Identification":"999995293","SupportedLanguages":[],"SupportedCurrencies":["MXN"],"Branch":{"Identification":"N/A"},"Location":{"Site":{"Name":"BODEGA AURRERA CD. ACUNA"},"PostalAddress":{"AddressLine":["AEROPUERTO"],"BuildingNumber":"2000","StreetName":"LIBRAMIENTO EMILIO MENDOZA CISNEROS","TownName":"ACUNA","CountrySubDivision":["COAHUILA"],"Country":"MX","PostCode":"26230","GeoLocation":{"GeographicCoordinates":{"Latitude":"29.32795","Longitude":"-100.976138"}}}}},{"Identification":"999995340","SupportedLanguages":[],"SupportedCurrencies":["MXN"],"Branch":{"Identification":"N/A"},"Location":{"Site":{"Name":"SUNBEAM OSTER 2"},"PostalAddress":{"AddressLine":["PARQUE INDUSTRIAL AMISTAD"],"BuildingNumber":"KM 6","StreetName":"CARRETERA PRESA LA AMISTAD","TownName":"ACUNA","CountrySubDivision":["COAHUILA"],"Country":"MX","PostCode":"26220","GeoLocation":{"GeographicCoordinates":{"Latitude":"29.344812","Longitude":"-100.991135"}}}}},{"Identification":"999994490","SupportedLanguages":[],"SupportedCurrencies":["MXN"],"Branch":{"Identification":"N/A"},"Location":{"Site":{"Name":"EQUIPOS DE ACUNA"},"PostalAddress":{"AddressLine":["PARQUE IND. MODELO"],"BuildingNumber":"KM 8.5","StreetName":"CARR. PRESA LA AMISTAD","TownName":"ACUNA","CountrySubDivision":["COAHUILA"],"Country":"MX","PostCode":"26220","GeoLocation":{"GeographicCoordinates":{"Latitude":"29.340864","Longitude":"-101.019066"}}}}},{"Identification":"999991592","SupportedLanguages":[],"SupportedCurrencies":["MXN"],"Branch":{"Identification":"1869"},"Location":{"Site":{"Name":"SUC. CENTRO ACUNA"},"PostalAddress":{"AddressLine":["CENTRO"],"BuildingNumber":"SIN NUMERO","StreetName":"GUERRERO","TownName":"ACUNA","CountrySubDivision":["COAHUILA"],"Country":"MX","PostCode":"26200","GeoLocation":{"GeographicCoordinates":{"Latitude":"29.320294","Longitude":"-100.931869"}}}}},{"Identification":"999994931","SupportedLanguages":[],"SupportedCurrencies":["MXN"],"Branch":{"Identification":"N/A"},"Location":{"Site":{"Name":"INTERMETRO DE ACUÑA S DE RL DE CV"},"PostalAddress":{"AddressLine":["PARQUE INDUSTRIAL AMISTAD"],"BuildingNumber":"505","StreetName":"ZACATECAS","TownName":"ACUNA","CountrySubDivision":["COAHUILA"],"Country":"MX","PostCode":"26220","GeoLocation":{"GeographicCoordinates":{"Latitude":"29.343127","Longitude":"-100.986392"}}}}},{"Identification":"999995287","SupportedLanguages":[],"SupportedCurrencies":["MXN","USD"],"Branch":{"Identification":"N/A"},"Location":{"Site":{"Name":"W.E.T. SISTEMAS AUTOMOTRICES 2"},"PostalAddress":{"AddressLine":["PARQUE INDUSTRIAL"],"BuildingNumber":"KM. 7","StreetName":"CARRETERA PRESA LA AMISTAD","TownName":"ACUNA","CountrySubDivision":["COAHUILA"],"Country":"MX","PostCode":"26220","GeoLocation":{"GeographicCoordinates":{"Latitude":"29.34042","Longitude":"-100.996596"}}}}},{"Identification":"999995328","SupportedLanguages":[],"SupportedCurrencies":["MXN"],"Branch":{"Identification":"N/A"},"Location":{"Site":{"Name":"WET SISTEMAS AUTOMOTRICES 4"},"PostalAddress":{"AddressLine":["PARQUE INDUSTRIAL LA AMISTAD"],"BuildingNumber":"600","StreetName":"CARRETERA PRESA LA AMISTAD","TownName":"ACUNA","CountrySubDivision":["COAHUILA"],"Country":"MX","PostCode":"26220","GeoLocation":{"GeographicCoordinates":{"Latitude":"29.339794","Longitude":"-100.996568"}}}}},{"Identification":"999991593","SupportedLanguages":[],"SupportedCurrencies":["MXN"],"Branch":{"Identification":"1869"},"Location":{"Site":{"Name":"SUC. CENTRO ACUNA"},"PostalAddress":{"AddressLine":["CENTRO"],"BuildingNumber":"SIN NUMERO","StreetName":"GUERRERO","TownName":"ACUNA","CountrySubDivision":["COAHUILA"],"Country":"MX","PostCode":"26200","GeoLocation":{"GeographicCoordinates":{"Latitude":"29.320294","Longitude":"-100.931869"}}}}},{"Identification":"999994486","SupportedLanguages":[],"SupportedCurrencies":["MXN"],"Branch":{"Identification":"N/A"},"Location":{"Site":{"Name":"SORIANA MERCADO ACUNA"},"PostalAddress":{"AddressLine":["LA AMISTAD"],"BuildingNumber":"595","StreetName":"LIB. JOSE DE LAS FUENTES RODRIGUEZ","TownName":"ACUNA","CountrySubDivision":["COAHUILA"],"Country":"MX","PostCode":"26248","GeoLocation":{"GeographicCoordinates":{"Latitude":"29.321837","Longitude":"-100.957057"}}}}},{"Identification":"999994936","SupportedLanguages":[],"SupportedCurrencies":["MXN"],"Branch":{"Identification":"N/A"},"Location":{"Site":{"Name":"W.E.T SISTEMAS AUTOMOTRICES 3"},"PostalAddress":{"AddressLine":["PARQUE INDUSTRIAL LA AMISTAD"],"BuildingNumber":"600","StreetName":"CARRETERA PRESA DE LA AMISTAD","TownName":"ACUNA","CountrySubDivision":["COAHUILA"],"Country":"MX","PostCode":"26220","GeoLocation":{"GeographicCoordinates":{"Latitude":"29.340627","Longitude":"-100.996609"}}}}},{"Identification":"999995337","SupportedLanguages":[],"SupportedCurrencies":["MXN"],"Branch":{"Identification":"N/A"},"Location":{"Site":{"Name":"SUNBEAM OSTER 1"},"PostalAddress":{"AddressLine":["PARQUE INDUSTRIAL AMISTAD"],"BuildingNumber":"KM 6","StreetName":"CARRETERA PRESA LA AMISTAD","TownName":"ACUNA","CountrySubDivision":["COAHUILA"],"Country":"MX","PostCode":"26220","GeoLocation":{"GeographicCoordinates":{"Latitude":"29.344829","Longitude":"-100.991337"}}}}},{"Identification":"999994124","SupportedLanguages":[],"SupportedCurrencies":["MXN"],"Branch":{"Identification":"N/A"},"Location":{"Site":{"Name":"MI BODEGA AGUA DULCE"},"PostalAddress":{"AddressLine":["CUATRO CAMINOS"],"BuildingNumber":"LT. 1 MZ.","StreetName":"AV. FRANCISCO I. MADERO","TownName":"AGUA DULCE","CountrySubDivision":["VERACRUZ"],"Country":"MX","PostCode":"96660","GeoLocation":{"GeographicCoordinates":{"Latitude":"18.135287","Longitude":"-94.152676"}}}}},{"Identification":"999992331","SupportedLanguages":[],"SupportedCurrencies":["MXN"],"Branch":{"Identification":"N/A"},"Location":{"Site":{"Name":"LEY EXPRESS EL ZAINO"},"PostalAddress":{"AddressLine":["CALLE 22"],"BuildingNumber":"1901","StreetName":"CARR. APSON-JANOS","TownName":"AGUA PRIETA","CountrySubDivision":["SONORA"],"Country":"MX","PostCode":"84201","GeoLocation":{"GeographicCoordinates":{"Latitude":"31.315427","Longitude":"-109.54354"}}}}},{"Identification":"999991538","SupportedLanguages":[],"SupportedCurrencies":["MXN"],"Branch":{"Identification":"1633"},"Location":{"Site":{"Name":"SUC. AGUA PRIETA"},"PostalAddress":{"AddressLine":["PARQUE INDUSTRIAL"],"BuildingNumber":"-","StreetName":"CALLE TRECE","TownName":"AGUA PRIETA","CountrySubDivision":["SONORA"],"Country":"MX","PostCode":"84200","GeoLocation":{"GeographicCoordinates":{"Latitude":"31.321853","Longitude":"-109.552029"}}}}},{"Identification":"999992314","SupportedLanguages":[],"SupportedCurrencies":["MXN"],"Branch":{"Identification":"N/A"},"Location":{"Site":{"Name":"SUPER DEL NORTE UNIDAD DEPORTIVA"},"PostalAddress":{"AddressLine":["DEPORTIVA"],"BuildingNumber":"41","StreetName":"CALLE 5","TownName":"AGUA PRIETA","CountrySubDivision":["SONORA"],"Country":"MX","PostCode":"84200","GeoLocation":{"GeographicCoordinates":{"Latitude":"31.33001","Longitude":"-109.521059"}}}}},{"Identification":"999991537","SupportedLanguages":[],"SupportedCurrencies":["MXN","USD"],"Branch":{"Identification":"1633"},"Location":{"Site":{"Name":"SUC. AGUA PRIETA"},"PostalAddress":{"AddressLine":["PARQUE INDUSTRIAL"],"BuildingNumber":"-","StreetName":"CALLE TRECE","TownName":"AGUA PRIETA","CountrySubDivision":["SONORA"],"Country":"MX","PostCode":"84200","GeoLocation":{"GeographicCoordinates":{"Latitude":"31.321853","Longitude":"-109.552029"}}}}},{"Identification":"999992266","SupportedLanguages":[],"SupportedCurrencies":["MXN"],"Branch":{"Identification":"N/A"},"Location":{"Site":{"Name":"SUPER LEY EXP FRONTERAS"},"PostalAddress":{"AddressLine":["INDUSTRIAL"],"BuildingNumber":"1003","StreetName":"13","TownName":"AGUA PRIETA","CountrySubDivision":["SONORA"],"Country":"MX","PostCode":"84200","GeoLocation":{"GeographicCoordinates":{"Latitude":"31.321714","Longitude":"-109.551396"}}}}},{"Identification":"999990469","SupportedLanguages":[],"SupportedCurrencies":["MXN"],"Branch":{"Identification":"286"},"Location":{"Site":{"Name":"SUC. CIRCUNVALACION"},"PostalAddress":{"AddressLine":["FRACC. SANTA ELENA"],"BuildingNumber":"801","StreetName":"AV. CONVENCION SUR","TownName":"AGUASCALIENTES","CountrySubDivision":["AGUASCALIENTES"],"Country":"MX","PostCode":"20230","GeoLocation":{"GeographicCoordinates":{"Latitude":"21.867191","Longitude":"-102.303102"}}}}},{"Identification":"999993420","SupportedLanguages":[],"SupportedCurrencies":["MXN"],"Branch":{"Identification":"N/A"},"Location":{"Site":{"Name":"C.M. AGUASCALIENTES EL DORADO"},"PostalAddress":{"AddressLine":["FRACC. EL DORADO"],"BuildingNumber":"1701","StreetName":"AV. DE LAS AMERICAS","TownName":"AGUASCALIENTES","CountrySubDivision":["AGUASCALIENTES"],"Country":"MX","PostCode":"20230","GeoLocation":{"GeographicCoordinates":{"Latitude":"21.861792","Longitude":"-102.303776"}}}}},{"Identification":"999991806","SupportedLanguages":[],"SupportedCurrencies":["MXN"],"Branch":{"Identification":"3071"},"Location":{"Site":{"Name":"SUC. TEATRO AGUASCALIENTES"},"PostalAddress":{"AddressLine":["AGRICULTURA"],"BuildingNumber":"1531","StreetName":"JOSE MARIA CHAVEZ","TownName":"AGUASCALIENTES","CountrySubDivision":["AGUASCALIENTES"],"Country":"MX","PostCode":"20234","GeoLocation":{"GeographicCoordinates":{"Latitude":"21.858436","Longitude":"-102.294067"}}}}},{"Identification":"999993501","SupportedLanguages":[],"SupportedCurrencies":["MXN"],"Branch":{"Identification":"N/A"},"Location":{"Site":{"Name":"NR FINANCE SERVICES SA DE CV"},"PostalAddress":{"AddressLine":["PARQUE INDUSTRIAL TECNOPOLO POCITOS"],"BuildingNumber":"103","StreetName":"AVENIDA CIENCIA Y TECNOLOGIA","TownName":"AGUASCALIENTES","CountrySubDivision":["AGUASCALIENTES"],"Country":"MX","PostCode":"20328","GeoLocation":{"GeographicCoordinates":{"Latitude":"21.928575","Longitude":"-102.336904"}}}}},{"Identification":"999991000","SupportedLanguages":[],"SupportedCurrencies":["MXN"],"Branch":{"Identification":"710"},"Location":{"Site":{"Name":"SUC. PLAZA KRISTAL"},"PostalAddress":{"AddressLine":["SAN LUIS"],"BuildingNumber":"414","StreetName":"AV. LUIS DONALDO COLOSIO","TownName":"AGUASCALIENTES","CountrySubDivision":["AGUASCALIENTES"],"Country":"MX","PostCode":"20120","GeoLocation":{"GeographicCoordinates":{"Latitude":"21.924974","Longitude":"-102.305426"}}}}},{"Identification":"999993412","SupportedLanguages":[],"SupportedCurrencies":["MXN"],"Branch":{"Identification":"N/A"},"Location":{"Site":{"Name":"BENAVIDES PASEO DE ASUNCION"},"PostalAddress":{"AddressLine":["OLIVARES SANTANA"],"BuildingNumber":"170","StreetName":"AV. CONVENCION","TownName":"AGUASCALIENTES","CountrySubDivision":["AGUASCALIENTES"],"Country":"MX","PostCode":"20010","GeoLocation":{"GeographicCoordinates":{"Latitude":"21.895154","Longitude":"-102.311266"}}}}},{"Identification":"999990463","SupportedLanguages":[],"SupportedCurrencies":["MXN"],"Branch":{"Identification":"284"},"Location":{"Site":{"Name":"SUC. CENTRO AGUASCALIENTES"},"PostalAddress":{"AddressLine":["CENTRO"],"BuildingNumber":"117","StreetName":"AV. MADERO","TownName":"AGUASCALIENTES","CountrySubDivision":["AGUASCALIENTES"],"Country":"MX","PostCode":"20000","GeoLocation":{"GeographicCoordinates":{"Latitude":"21.88129","Longitude":"-102.295062"}}}}},{"Identification":"999993502","SupportedLanguages":[],"SupportedCurrencies":["MXN"],"Branch":{"Identification":"N/A"},"Location":{"Site":{"Name":"DAIMLER SERVICIOS CORPORATIVOS S DE RL DE CV AGUASCALIENTES"},"PostalAddress":{"AddressLine":["EJIDO DE PENUELAS"],"BuildingNumber":"KM 112","StreetName":"CARRETERA PANAMERICANA SUR","TownName":"AGUASCALIENTES","CountrySubDivision":["AGUASCALIENTES"],"Country":"MX","PostCode":"20349","GeoLocation":{"GeographicCoordinates":{"Latitude":"21.727046","Longitude":"-102.286636"}}}}},{"Identification":"999991966","SupportedLanguages":[],"SupportedCurrencies":["MXN"],"Branch":{"Identification":"80133"},"Location":{"Site":{"Name":"MODULO COMPAS 1"},"PostalAddress":{"AddressLine":["PEÑUELAS"],"BuildingNumber":"SN","StreetName":"Boulevard a Aeropuerto Km 2","TownName":"AGUASCALIENTES","CountrySubDivision":["AGUASCALIENTES"],"Country":"MX","PostCode":"20340","GeoLocation":{"GeographicCoordinates":{"Latitude":"21.735772","Longitude":"-102.278749"}}}}},{"Identification":"999993466","SupportedLanguages":[],"SupportedCurrencies":["MXN"],"Branch":{"Identification":"N/A"},"Location":{"Site":{"Name":"PARQUE DE TECNOLOGIA ELECTRONICA FLEXTRONICS 4"},"PostalAddress":{"AddressLine":["ZONA FEDERAL JESUS MARIA"],"BuildingNumber":"KM 9.5","StreetName":"BLVD. A ZACATECAS","TownName":"AGUASCALIENTES","CountrySubDivision":["AGUASCALIENTES"],"Country":"MX","PostCode":"20900","GeoLocation":{"GeographicCoordinates":{"Latitude":"21.96082","Longitude":"-102.292799"}}}}},{"Identification":"999993484","SupportedLanguages":[],"SupportedCurrencies":["MXN"],"Branch":{"Identification":"N/A"},"Location":{"Site":{"Name":"NISSAN MEXICANA SA DE CV PLANTA A2 ENSAMBLES"},"PostalAddress":{"AddressLine":["PENUELAS"],"BuildingNumber":"KM 112","StreetName":"CARRETERA PANAMERICANA SUR","TownName":"AGUASCALIENTES","CountrySubDivision":["AGUASCALIENTES"],"Country":"MX","PostCode":"20340","GeoLocation":{"GeographicCoordinates":{"Latitude":"21.81282","Longitude":"-102.282391"}}}}},{"Identification":"999993462","SupportedLanguages":[],"SupportedCurrencies":["MXN"],"Branch":{"Identification":"N/A"},"Location":{"Site":{"Name":"GAP AEROPUERTO DE AGUASCALIENTES"},"PostalAddress":{"AddressLine":["EJIDO BUENA VISTA DE PENUELAS"],"BuildingNumber":"KM. 22","StreetName":"CARR. PANAMERICANA","TownName":"AGUASCALIENTES","CountrySubDivision":["AGUASCALIENTES"],"Country":"MX","PostCode":"20340","GeoLocation":{"GeographicCoordinates":{"Latitude":"21.701415","Longitude":"-102.313936"}}}}},{"Identification":"999990995","SupportedLanguages":[],"SupportedCurrencies":["MXN"],"Branch":{"Identification":"708"},"Location":{"Site":{"Name":"SUC. PLAZA ORIENTE"},"PostalAddress":{"AddressLine":["JESUS TERAN"],"BuildingNumber":"701","StreetName":"AV. CONVENCION NTE.","TownName":"AGUASCALIENTES","CountrySubDivision":["AGUASCALIENTES"],"Country":"MX","PostCode":"20250","GeoLocation":{"GeographicCoordinates":{"Latitude":"21.873162","Longitude":"-102.270904"}}}}},{"Identification":"999993416","SupportedLanguages":[],"SupportedCurrencies":["MXN"],"Branch":{"Identification":"N/A"},"Location":{"Site":{"Name":"SAMS CLUB AGUASCALIENTES"},"PostalAddress":{"AddressLine":["JARDINES DE LA CONCEPCION"],"BuildingNumber":"2351","StreetName":"AV. INDEPENDENCIA","TownName":"AGUASCALIENTES","CountrySubDivision":["AGUASCALIENTES"],"Country":"MX","PostCode":"20110","GeoLocation":{"GeographicCoordinates":{"Latitude":"21.924293","Longitude":"-102.292947"}}}}},{"Identification":"999993480","SupportedLanguages":[],"SupportedCurrencies":["MXN"],"Branch":{"Identification":"N/A"},"Location":{"Site":{"Name":"NISSAN A1 COMEDOR NORTE"},"PostalAddress":{"AddressLine":["LOS ARELLANO"],"BuildingNumber":"KM 75","StreetName":"CARRETERA AGUASCALIENTES - LAGOS DE MORENO","TownName":"AGUASCALIENTES","CountrySubDivision":["AGUASCALIENTES"],"Country":"MX","PostCode":"20290","GeoLocation":{"GeographicCoordinates":{"Latitude":"21.811674","Longitude":"-102.282231"}}}}},{"Identification":"999993471","SupportedLanguages":[],"SupportedCurrencies":["MXN"],"Branch":{"Identification":"N/A"},"Location":{"Site":{"Name":"FINANCIERA INDEPENDENCIA AGUASCALIENTES"},"PostalAddress":{"AddressLine":["PARQUE IND. TECNO POLO"],"BuildingNumber":"902","StreetName":"AV. EUGENIO GARZA SADA","TownName":"AGUASCALIENTES","CountrySubDivision":["AGUASCALIENTES"],"Country":"MX","PostCode":"20328","GeoLocation":{"GeographicCoordinates":{"Latitude":"21.929029","Longitude":"-102.338857"}}}}},{"Identification":"999993421","SupportedLanguages":[],"SupportedCurrencies":["MXN"],"Branch":{"Identification":"N/A"},"Location":{"Site":{"Name":"IMSS AGUASCALIENTES"},"PostalAddress":{"AddressLine":["OJO CALIENTE"],"BuildingNumber":"102","StreetName":"CALLE 25","TownName":"AGUASCALIENTES","CountrySubDivision":["AGUASCALIENTES"],"Country":"MX","PostCode":"20190","GeoLocation":{"GeographicCoordinates":{"Latitude":"21.876596","Longitude":"-102.254979"}}}}},{"Identification":"999993496","SupportedLanguages":[],"SupportedCurrencies":["MXN"],"Branch":{"Identification":"N/A"},"Location":{"Site":{"Name":"COOPERATION MANUFACTIRING PLANTA AGUASCALIENTES CORREDOR A"},"PostalAddress":{"AddressLine":["EJIDO DE PEÑUELAS"],"BuildingNumber":"KM 2","StreetName":"BOULEVARD AL AEROPUERTO","TownName":"AGUASCALIENTES","CountrySubDivision":["AGUASCALIENTES"],"Country":"MX","PostCode":"20340","GeoLocation":{"GeographicCoordinates":{"Latitude":"21.735574","Longitude":"-102.278745"}}}}},{"Identification":"999993415","SupportedLanguages":[],"SupportedCurrencies":["MXN"],"Branch":{"Identification":"N/A"},"Location":{"Site":{"Name":"TELMEX AGUASCALIENTES"},"PostalAddress":{"AddressLine":["CIUDAD CENTRO"],"BuildingNumber":"129","StreetName":"Pedro Parga","TownName":"AGUASCALIENTES","CountrySubDivision":["AGUASCALIENTES"],"Country":"MX","PostCode":"20000","GeoLocation":{"GeographicCoordinates":{"Latitude":"21.883885","Longitude":"-102.294027"}}}}},{"Identification":"999993441","SupportedLanguages":[],"SupportedCurrencies":["MXN"],"Branch":{"Identification":"N/A"},"Location":{"Site":{"Name":"BODEGA AURRERA VILLASUNCION"},"PostalAddress":{"AddressLine":["CENTRO"],"BuildingNumber":"KM 1","StreetName":"BLVD. JOSE MARIA CHAVEZ","TownName":"AGUASCALIENTES","CountrySubDivision":["AGUASCALIENTES"],"Country":"MX","PostCode":"20208","GeoLocation":{"GeographicCoordinates":{"Latitude":"21.853732","Longitude":"-102.293463"}}}}},{"Identification":"999993479","SupportedLanguages":[],"SupportedCurrencies":["MXN"],"Branch":{"Identification":"N/A"},"Location":{"Site":{"Name":"NISSAN A1 COMEDOR SUR"},"PostalAddress":{"AddressLine":["LOS ARELLANO"],"BuildingNumber":"KM 75","StreetName":"CARRETERA AGUASCALIENTES - LAGOS DE MORENO","TownName":"AGUASCALIENTES","CountrySubDivision":["AGUASCALIENTES"],"Country":"MX","PostCode":"20290","GeoLocation":{"GeographicCoordinates":{"Latitude":"21.8065","Longitude":"-102.280547"}}}}},{"Identification":"999990998","SupportedLanguages":[],"SupportedCurrencies":["MXN"],"Branch":{"Identification":"709"},"Location":{"Site":{"Name":"SUC. UNIVERSIDAD AGUASCALIENTES"},"PostalAddress":{"AddressLine":["FRACC. SAN CAYETANO"],"BuildingNumber":"306","StreetName":"AV. UNIVERSIDAD","TownName":"AGUASCALIENTES","CountrySubDivision":["AGUASCALIENTES"],"Country":"MX","PostCode":"20010","GeoLocation":{"GeographicCoordinates":{"Latitude":"21.900403","Longitude":"-102.306578"}}}}},{"Identification":"999990997","SupportedLanguages":[],"SupportedCurrencies":["MXN"],"Branch":{"Identification":"709"},"Location":{"Site":{"Name":"SUC. UNIVERSIDAD AGUASCALIENTES"},"PostalAddress":{"AddressLine":["FRACC. SAN CAYETANO"],"BuildingNumber":"306","StreetName":"AV. UNIVERSIDAD","TownName":"AGUASCALIENTES","CountrySubDivision":["AGUASCALIENTES"],"Country":"MX","PostCode":"20010","GeoLocation":{"GeographicCoordinates":{"Latitude":"21.900403","Longitude":"-102.306578"}}}}},{"Identification":"999991956","SupportedLanguages":[],"SupportedCurrencies":["MXN"],"Branch":{"Identification":"79365"},"Location":{"Site":{"Name":"NISSAN AGUASCALIENTES"},"PostalAddress":{"AddressLine":["PEÑUELAS"],"BuildingNumber":"KM 112","StreetName":"CARRETERA PANAMERICANA SUR","TownName":"AGUASCALIENTES","CountrySubDivision":["AGUASCALIENTES"],"Country":"MX","PostCode":"20340","GeoLocation":{"GeographicCoordinates":{"Latitude":"21.808003","Longitude":"-102.282619"}}}}},{"Identification":"999993495","SupportedLanguages":[],"SupportedCurrencies":["MXN"],"Branch":{"Identification":"N/A"},"Location":{"Site":{"Name":"COOPERATION MANUFACTURING PLANTA AGUASCALIENTES COMEDOR SUR"},"PostalAddress":{"AddressLine":["EJIDO DE PEÑUELAS"],"BuildingNumber":"KM 2","StreetName":"BOULEVARD AL AEROPUERTO","TownName":"AGUASCALIENTES","CountrySubDivision":["AGUASCALIENTES"],"Country":"MX","PostCode":"20340","GeoLocation":{"GeographicCoordinates":{"Latitude":"21.735633","Longitude":"-102.278745"}}}}},{"Identification":"999993432","SupportedLanguages":[],"SupportedCurrencies":["MXN"],"Branch":{"Identification":"N/A"},"Location":{"Site":{"Name":"BODEGA AURRERA OJO CALIENTE AGS"},"PostalAddress":{"AddressLine":["FRACC. HACIENDA OJO CALIENTE"],"BuildingNumber":"5190","StreetName":"AV. SIGLO XXI","TownName":"AGUASCALIENTES","CountrySubDivision":["AGUASCALIENTES"],"Country":"MX","PostCode":"20190","GeoLocation":{"GeographicCoordinates":{"Latitude":"21.888195","Longitude":"-102.250472"}}}}},{"Identification":"999993483","SupportedLanguages":[],"SupportedCurrencies":["MXN"],"Branch":{"Identification":"N/A"},"Location":{"Site":{"Name":"NISSAN MEXICANA SA DE CV A2 ANDEN SUR"},"PostalAddress":{"AddressLine":["PENUELAS"],"BuildingNumber":"KM 112","StreetName":"CARRETERA PANAMERICANA SUR","TownName":"AGUASCALIENTES","CountrySubDivision":["AGUASCALIENTES"],"Country":"MX","PostCode":"20340","GeoLocation":{"GeographicCoordinates":{"Latitude":"21.802629","Longitude":"-102.280506"}}}}},{"Identification":"999990465","SupportedLanguages":[],"SupportedCurrencies":["MXN"],"Branch":{"Identification":"284"},"Location":{"Site":{"Name":"SUC. CENTRO AGUASCALIENTES"},"PostalAddress":{"AddressLine":["CENTRO"],"BuildingNumber":"117","StreetName":"AV. MADERO","TownName":"AGUASCALIENTES","CountrySubDivision":["AGUASCALIENTES"],"Country":"MX","PostCode":"20000","GeoLocation":{"GeographicCoordinates":{"Latitude":"21.88129","Longitude":"-102.295062"}}}}},{"Identification":"999993453","SupportedLanguages":[],"SupportedCurrencies":["MXN"],"Branch":{"Identification":"N/A"},"Location":{"Site":{"Name":"BENAVIDES PILAR BLANCO"},"PostalAddress":{"AddressLine":["VILLAS DEL PILAR"],"BuildingNumber":"3102","StreetName":"AV 3ER ANILLO","TownName":"AGUASCALIENTES","CountrySubDivision":["AGUASCALIENTES"],"Country":"MX","PostCode":"20289","GeoLocation":{"GeographicCoordinates":{"Latitude":"21.84502","Longitude":"-102.301832"}}}}},{"Identification":"999991955","SupportedLanguages":[],"SupportedCurrencies":["MXN"],"Branch":{"Identification":"79365"},"Location":{"Site":{"Name":"NISSAN AGUASCALIENTES"},"PostalAddress":{"AddressLine":["PEÑUELAS"],"BuildingNumber":"KM 112","StreetName":"CARRETERA PANAMERICANA SUR","TownName":"AGUASCALIENTES","CountrySubDivision":["AGUASCALIENTES"],"Country":"MX","PostCode":"20340","GeoLocation":{"GeographicCoordinates":{"Latitude":"21.808003","Longitude":"-102.282619"}}}}},{"Identification":"999993409","SupportedLanguages":[],"SupportedCurrencies":["MXN"],"Branch":{"Identification":"N/A"},"Location":{"Site":{"Name":"MULTISERVICIOS ESPECIALIZADOS MORITA (GASOLINERA)"},"PostalAddress":{"AddressLine":["PARQUE INDISTRIAL SIGLO XXI"],"BuildingNumber":"119","StreetName":"JUAN CARLOS","TownName":"AGUASCALIENTES","CountrySubDivision":["AGUASCALIENTES"],"Country":"MX","PostCode":"20219","GeoLocation":{"GeographicCoordinates":{"Latitude":"21.800453","Longitude":"-102.284513"}}}}},{"Identification":"999993440","SupportedLanguages":[],"SupportedCurrencies":["MXN"],"Branch":{"Identification":"N/A"},"Location":{"Site":{"Name":"PODER JUDICIAL DE LA FEDERACION AGUASCALIENTES"},"PostalAddress":{"AddressLine":["FRACC. JARDINES DE AGUASCALIENTES"],"BuildingNumber":"603","StreetName":"AV. AGUASCALIENTES SUR","TownName":"AGUASCALIENTES","CountrySubDivision":["AGUASCALIENTES"],"Country":"MX","PostCode":"20270","GeoLocation":{"GeographicCoordinates":{"Latitude":"21.858684","Longitude":"-102.287161"}}}}},{"Identification":"999993467","SupportedLanguages":[],"SupportedCurrencies":["MXN"],"Branch":{"Identification":"N/A"},"Location":{"Site":{"Name":"PARQUE DE TECNOLOGIA ELECTRONICA FLEXTRONICS 4"},"PostalAddress":{"AddressLine":["ZONA FEDERAL JESUS MARIA"],"BuildingNumber":"KM 9.5","StreetName":"BLVD. A ZACATECAS","TownName":"AGUASCALIENTES","CountrySubDivision":["AGUASCALIENTES"],"Country":"MX","PostCode":"20900","GeoLocation":{"GeographicCoordinates":{"Latitude":"21.962057","Longitude":"-102.292363"}}}}},{"Identification":"999993489","SupportedLanguages":[],"SupportedCurrencies":["MXN"],"Branch":{"Identification":"N/A"},"Location":{"Site":{"Name":"COOPERATION MANUFACTURING PLANT AGUASCALIENTES SAPI DE CV 2"},"PostalAddress":{"AddressLine":["EJIDO DE PEÑUELAS"],"BuildingNumber":"KM 2","StreetName":"BOULEVARD AL AEROPUERTO","TownName":"AGUASCALIENTES","CountrySubDivision":["AGUASCALIENTES"],"Country":"MX","PostCode":"20340","GeoLocation":{"GeographicCoordinates":{"Latitude":"21.735541","Longitude":"-102.278579"}}}}},{"Identification":"999993426","SupportedLanguages":[],"SupportedCurrencies":["MXN"],"Branch":{"Identification":"N/A"},"Location":{"Site":{"Name":"TELMEX AGUASCALIENTES INDEPENDENCIA"},"PostalAddress":{"AddressLine":["TROJES DE ALONSO"],"BuildingNumber":"2528","StreetName":"AV. INDEPENDENCIA","TownName":"AGUASCALIENTES","CountrySubDivision":["AGUASCALIENTES"],"Country":"MX","PostCode":"20110","GeoLocation":{"GeographicCoordinates":{"Latitude":"21.940956","Longitude":"-102.297588"}}}}},{"Identification":"999993433","SupportedLanguages":[],"SupportedCurrencies":["MXN"],"Branch":{"Identification":"N/A"},"Location":{"Site":{"Name":"CHEDRAUI AGUASCALIENTES"},"PostalAddress":{"AddressLine":["FRACC. VILLASUNCION"],"BuildingNumber":"1809","StreetName":"JOSE MA. CHAVEZ","TownName":"AGUASCALIENTES","CountrySubDivision":["AGUASCALIENTES"],"Country":"MX","PostCode":"20280","GeoLocation":{"GeographicCoordinates":{"Latitude":"21.855277","Longitude":"-102.293503"}}}}},{"Identification":"999990993","SupportedLanguages":[],"SupportedCurrencies":["MXN"],"Branch":{"Identification":"705"},"Location":{"Site":{"Name":"SUC.PLAZA COMERCIAL AGUASCALIENTES"},"PostalAddress":{"AddressLine":["FRACC. DEL VALLE 1RA. SECCION"],"BuildingNumber":"110","StreetName":"AV. CONVENCION PONIENTE","TownName":"AGUASCALIENTES","CountrySubDivision":["AGUASCALIENTES"],"Country":"MX","PostCode":"20000","GeoLocation":{"GeographicCoordinates":{"Latitude":"21.875151","Longitude":"-102.312294"}}}}},{"Identification":"999993448","SupportedLanguages":[],"SupportedCurrencies":["MXN"],"Branch":{"Identification":"N/A"},"Location":{"Site":{"Name":"SORIANA MERCADO LA ASUNCION"},"PostalAddress":{"AddressLine":["VILLA DE NUESTRA SENORA DE LA ASUNCION SECTOR ENCINOS"],"BuildingNumber":"S/N","StreetName":"BLVD. SIGLO XXI","TownName":"AGUASCALIENTES","CountrySubDivision":["AGUASCALIENTES"],"Country":"MX","PostCode":"20126","GeoLocation":{"GeographicCoordinates":{"Latitude":"21.926202","Longitude":"-102.26649"}}}}},{"Identification":"999991805","SupportedLanguages":[],"SupportedCurrencies":["MXN"],"Branch":{"Identification":"3071"},"Location":{"Site":{"Name":"SUC. TEATRO AGUASCALIENTES"},"PostalAddress":{"AddressLine":["AGRICULTURA"],"BuildingNumber":"1531","StreetName":"JOSE MARIA CHAVEZ","TownName":"AGUASCALIENTES","CountrySubDivision":["AGUASCALIENTES"],"Country":"MX","PostCode":"20234","GeoLocation":{"GeographicCoordinates":{"Latitude":"21.858436","Longitude":"-102.294067"}}}}},{"Identification":"999993405","SupportedLanguages":[],"SupportedCurrencies":["MXN"],"Branch":{"Identification":"N/A"},"Location":{"Site":{"Name":"TELMEX AGUASCALIENTES"},"PostalAddress":{"AddressLine":["CIUDAD CENTRO"],"BuildingNumber":"129","StreetName":"Pedro Parga","TownName":"AGUASCALIENTES","CountrySubDivision":["AGUASCALIENTES"],"Country":"MX","PostCode":"20000","GeoLocation":{"GeographicCoordinates":{"Latitude":"21.883999","Longitude":"-102.294078"}}}}},{"Identification":"999991965","SupportedLanguages":[],"SupportedCurrencies":["MXN"],"Branch":{"Identification":"80130"},"Location":{"Site":{"Name":"MODULO  COMPAS"},"PostalAddress":{"AddressLine":["PEÑUELAS"],"BuildingNumber":"SN","StreetName":"Boulevard a Aeropuerto Km 2","TownName":"AGUASCALIENTES","CountrySubDivision":["AGUASCALIENTES"],"Country":"MX","PostCode":"20340","GeoLocation":{"GeographicCoordinates":{"Latitude":"21.735852","Longitude":"-102.278749"}}}}},{"Identification":"999993497","SupportedLanguages":[],"SupportedCurrencies":["MXN"],"Branch":{"Identification":"N/A"},"Location":{"Site":{"Name":"COOPERATION MANUFACTIRING PLANTA AGUASCALIENTES LOCKER ROOM"},"PostalAddress":{"AddressLine":["EJIDO DE PEÑUELAS"],"BuildingNumber":"KM 2","StreetName":"BOULEVARD AL AEROPUERTO","TownName":"AGUASCALIENTES","CountrySubDivision":["AGUASCALIENTES"],"Country":"MX","PostCode":"20340","GeoLocation":{"GeographicCoordinates":{"Latitude":"21.735507","Longitude":"-102.278749"}}}}},{"Identification":"999990996","SupportedLanguages":[],"SupportedCurrencies":["MXN"],"Branch":{"Identification":"708"},"Location":{"Site":{"Name":"SUC. PLAZA ORIENTE"},"PostalAddress":{"AddressLine":["JESUS TERAN"],"BuildingNumber":"701","StreetName":"AV. CONVENCION NTE.","TownName":"AGUASCALIENTES","CountrySubDivision":["AGUASCALIENTES"],"Country":"MX","PostCode":"20250","GeoLocation":{"GeographicCoordinates":{"Latitude":"21.873162","Longitude":"-102.270904"}}}}},{"Identification":"999993422","SupportedLanguages":[],"SupportedCurrencies":["MXN"],"Branch":{"Identification":"N/A"},"Location":{"Site":{"Name":"IMSS JOSE MA. CHAVEZ"},"PostalAddress":{"AddressLine":["LINDAVISTA"],"BuildingNumber":"1202","StreetName":"AV. JOSE MA. CHAVEZ","TownName":"AGUASCALIENTES","CountrySubDivision":["AGUASCALIENTES"],"Country":"MX","PostCode":"20270","GeoLocation":{"GeographicCoordinates":{"Latitude":"21.866188","Longitude":"-102.293555"}}}}},{"Identification":"999993418","SupportedLanguages":[],"SupportedCurrencies":["MXN"],"Branch":{"Identification":"N/A"},"Location":{"Site":{"Name":"OXXO BONATERRA"},"PostalAddress":{"AddressLine":["VISTA DEL SOL"],"BuildingNumber":"200","StreetName":"AV. AGUASCALIENTES SUR","TownName":"AGUASCALIENTES","CountrySubDivision":["AGUASCALIENTES"],"Country":"MX","PostCode":"20270","GeoLocation":{"GeographicCoordinates":{"Latitude":"21.860445","Longitude":"-102.268385"}}}}},{"Identification":"999990662","SupportedLanguages":[],"SupportedCurrencies":["MXN"],"Branch":{"Identification":"417"},"Location":{"Site":{"Name":"SUC. PULGAS PANDAS"},"PostalAddress":{"AddressLine":["FRACC. PULGAS PANDAS"],"BuildingNumber":"600","StreetName":"BLVD. AGUASCALIENTES NTE.","TownName":"AGUASCALIENTES","CountrySubDivision":["AGUASCALIENTES"],"Country":"MX","PostCode":"20138","GeoLocation":{"GeographicCoordinates":{"Latitude":"21.916141","Longitude":"-102.29972"}}}}},{"Identification":"999990661","SupportedLanguages":[],"SupportedCurrencies":["MXN","USD"],"Branch":{"Identification":"417"},"Location":{"Site":{"Name":"SUC. PULGAS PANDAS"},"PostalAddress":{"AddressLine":["FRACC. PULGAS PANDAS"],"BuildingNumber":"600","StreetName":"BLVD. AGUASCALIENTES NTE.","TownName":"AGUASCALIENTES","CountrySubDivision":["AGUASCALIENTES"],"Country":"MX","PostCode":"20138","GeoLocation":{"GeographicCoordinates":{"Latitude":"21.916141","Longitude":"-102.29972"}}}}},{"Identification":"999993451","SupportedLanguages":[],"SupportedCurrencies":["MXN"],"Branch":{"Identification":"N/A"},"Location":{"Site":{"Name":"BODEGA AURRERA SIGLO XXI"},"PostalAddress":{"AddressLine":["FRACC. PINTORES MEXICANOS"],"BuildingNumber":"2801","StreetName":"AV. SIGLO XXI","TownName":"AGUASCALIENTES","CountrySubDivision":["AGUASCALIENTES"],"Country":"MX","PostCode":"20174","GeoLocation":{"GeographicCoordinates":{"Latitude":"21.919745","Longitude":"-102.260691"}}}}},{"Identification":"999990992","SupportedLanguages":[],"SupportedCurrencies":["MXN"],"Branch":{"Identification":"705"},"Location":{"Site":{"Name":"SUC.PLAZA COMERCIAL AGUASCALIENTES"},"PostalAddress":{"AddressLine":["FRACC. DEL VALLE 1RA. SECCION"],"BuildingNumber":"110","StreetName":"AV. CONVENCION PONIENTE","TownName":"AGUASCALIENTES","CountrySubDivision":["AGUASCALIENTES"],"Country":"MX","PostCode":"20000","GeoLocation":{"GeographicCoordinates":{"Latitude":"21.875151","Longitude":"-102.312294"}}}}},{"Identification":"999990468","SupportedLanguages":[],"SupportedCurrencies":["MXN"],"Branch":{"Identification":"286"},"Location":{"Site":{"Name":"SUC. CIRCUNVALACION"},"PostalAddress":{"AddressLine":["FRACC. SANTA ELENA"],"BuildingNumber":"801","StreetName":"AV. CONVENCION SUR","TownName":"AGUASCALIENTES","CountrySubDivision":["AGUASCALIENTES"],"Country":"MX","PostCode":"20230","GeoLocation":{"GeographicCoordinates":{"Latitude":"21.867191","Longitude":"-102.303102"}}}}},{"Identification":"999993494","SupportedLanguages":[],"SupportedCurrencies":["MXN"],"Branch":{"Identification":"N/A"},"Location":{"Site":{"Name":"COOPERATION MANUFACTURING PLANTA AGUASCALIENTES COMEDOR NORTE"},"PostalAddress":{"AddressLine":["EJIDO DE PEÑUELAS"],"BuildingNumber":"KM 2","StreetName":"BOULEVARD AL AEROPUERTO","TownName":"AGUASCALIENTES","CountrySubDivision":["AGUASCALIENTES"],"Country":"MX","PostCode":"20340","GeoLocation":{"GeographicCoordinates":{"Latitude":"21.735698","Longitude":"-102.278741"}}}}},{"Identification":"999993481","SupportedLanguages":[],"SupportedCurrencies":["MXN"],"Branch":{"Identification":"N/A"},"Location":{"Site":{"Name":"NISSAN MEXICANA SA DE CV PLANTA A2 ANDEN NORTE"},"PostalAddress":{"AddressLine":["PENUELAS"],"BuildingNumber":"KM 112","StreetName":"CARRETERA PANAMERICANA SUR","TownName":"AGUASCALIENTES","CountrySubDivision":["AGUASCALIENTES"],"Country":"MX","PostCode":"20340","GeoLocation":{"GeographicCoordinates":{"Latitude":"21.815992","Longitude":"-102.283674"}}}}},{"Identification":"999993475","SupportedLanguages":[],"SupportedCurrencies":["MXN"],"Branch":{"Identification":"N/A"},"Location":{"Site":{"Name":"FERROCARRIL MEXICANO SA DE CV AGUASCALIENTES"},"PostalAddress":{"AddressLine":["PARQUE INDUSTRIAL SAN FRANCISCO DE LOS ROMO"],"BuildingNumber":"SN","StreetName":"CAMINO A BORROTES","TownName":"AGUASCALIENTES","CountrySubDivision":["AGUASCALIENTES"],"Country":"MX","PostCode":"20300","GeoLocation":{"GeographicCoordinates":{"Latitude":"22.059865","Longitude":"-102.26576"}}}}},{"Identification":"999990999","SupportedLanguages":[],"SupportedCurrencies":["MXN"],"Branch":{"Identification":"710"},"Location":{"Site":{"Name":"SUC. PLAZA KRISTAL"},"PostalAddress":{"AddressLine":["SAN LUIS"],"BuildingNumber":"414","StreetName":"AV. LUIS DONALDO COLOSIO","TownName":"AGUASCALIENTES","CountrySubDivision":["AGUASCALIENTES"],"Country":"MX","PostCode":"20120","GeoLocation":{"GeographicCoordinates":{"Latitude":"21.924974","Longitude":"-102.305426"}}}}},{"Identification":"999993430","SupportedLanguages":[],"SupportedCurrencies":["MXN"],"Branch":{"Identification":"N/A"},"Location":{"Site":{"Name":"C.M. BODEGA AGUASCALIENTES CASA BLANCA"},"PostalAddress":{"AddressLine":["-"],"BuildingNumber":"1305","StreetName":"BLVD. AGUASCALIENTES","TownName":"AGUASCALIENTES","CountrySubDivision":["AGUASCALIENTES"],"Country":"MX","PostCode":"20270","GeoLocation":{"GeographicCoordinates":{"Latitude":"21.860916","Longitude":"-102.274146"}}}}},{"Identification":"999993498","SupportedLanguages":[],"SupportedCurrencies":["MXN"],"Branch":{"Identification":"N/A"},"Location":{"Site":{"Name":"UVM EDUCACION SC AGUASCALIENTES"},"PostalAddress":{"AddressLine":["LOMA BONITA"],"BuildingNumber":"1144","StreetName":"BOULEVAR JUAN PABLO II","TownName":"AGUASCALIENTES","CountrySubDivision":["AGUASCALIENTES"],"Country":"MX","PostCode":"20200","GeoLocation":{"GeographicCoordinates":{"Latitude":"21.857959","Longitude":"-102.342548"}}}}},{"Identification":"999990464","SupportedLanguages":[],"SupportedCurrencies":["MXN"],"Branch":{"Identification":"284"},"Location":{"Site":{"Name":"SUC. CENTRO AGUASCALIENTES"},"PostalAddress":{"AddressLine":["CENTRO"],"BuildingNumber":"117","StreetName":"AV. MADERO","TownName":"AGUASCALIENTES","CountrySubDivision":["AGUASCALIENTES"],"Country":"MX","PostCode":"20000","GeoLocation":{"GeographicCoordinates":{"Latitude":"21.88129","Longitude":"-102.295062"}}}}},{"Identification":"999993477","SupportedLanguages":[],"SupportedCurrencies":["MXN"],"Branch":{"Identification":"N/A"},"Location":{"Site":{"Name":"NISSAN MEXICANA SA DE CV TOLUCA PLANTA A2 LOCKERS"},"PostalAddress":{"AddressLine":["EJIDO PENUELAS"],"BuildingNumber":"KM 112","StreetName":"CARRETERA PANAMERICANA SUR","TownName":"AGUASCALIENTES","CountrySubDivision":["AGUASCALIENTES"],"Country":"MX","PostCode":"20340","GeoLocation":{"GeographicCoordinates":{"Latitude":"21.811823","Longitude":"-102.281068"}}}}},{"Identification":"999990994","SupportedLanguages":[],"SupportedCurrencies":["MXN"],"Branch":{"Identification":"707"},"Location":{"Site":{"Name":"SUC. PLAZA LOS REMEDIOS"},"PostalAddress":{"AddressLine":["FRACC.BOSQUES DELPRADO"],"BuildingNumber":"1001","StreetName":"AV. UNIVERSIDAD","TownName":"AGUASCALIENTES","CountrySubDivision":["AGUASCALIENTES"],"Country":"MX","PostCode":"20127","GeoLocation":{"GeographicCoordinates":{"Latitude":"21.916901","Longitude":"-102.313357"}}}}},{"Identification":"999993465","SupportedLanguages":[],"SupportedCurrencies":["MXN"],"Branch":{"Identification":"N/A"},"Location":{"Site":{"Name":"PARQUE DE TECNOLOGIA ELECTRONICA FLEXTRONICS 4"},"PostalAddress":{"AddressLine":["ZONA FEDERAL JESUS MARIA"],"BuildingNumber":"KM 9.5","StreetName":"BLVD. A ZACATECAS","TownName":"AGUASCALIENTES","CountrySubDivision":["AGUASCALIENTES"],"Country":"MX","PostCode":"20900","GeoLocation":{"GeographicCoordinates":{"Latitude":"21.960594","Longitude":"-102.292267"}}}}},{"Identification":"999993491","SupportedLanguages":[],"SupportedCurrencies":["MXN"],"Branch":{"Identification":"N/A"},"Location":{"Site":{"Name":"FORJAS Y MAQUINAS"},"PostalAddress":{"AddressLine":["CIUDAD INDUSTRIAL"],"BuildingNumber":"402","StreetName":"JESUS RIVERA FRANCO","TownName":"AGUASCALIENTES","CountrySubDivision":["AGUASCALIENTES"],"Country":"MX","PostCode":"20290","GeoLocation":{"GeographicCoordinates":{"Latitude":"21.84245","Longitude":"-102.284127"}}}}},{"Identification":"999995151","SupportedLanguages":[],"SupportedCurrencies":["MXN"],"Branch":{"Identification":"N/A"},"Location":{"Site":{"Name":"SORIANA HIPERMERCADO ROSALES"},"PostalAddress":{"AddressLine":["CENTRO"],"BuildingNumber":"705 PTE","StreetName":"BLVD. CENTENARIO","TownName":"AHOME","CountrySubDivision":["SINALOA"],"Country":"MX","PostCode":"81270","GeoLocation":{"GeographicCoordinates":{"Latitude":"25.780071","Longitude":"-109.003983"}}}}},{"Identification":"999993458","SupportedLanguages":[],"SupportedCurrencies":["MXN"],"Branch":{"Identification":"N/A"},"Location":{"Site":{"Name":"LEY EXPRESS ZACATECAS"},"PostalAddress":{"AddressLine":["FRACC. SAN RAFAEL"],"BuildingNumber":"1331","StreetName":"BLVD. ZACATECAS","TownName":"AHOME","CountrySubDivision":["SINALOA"],"Country":"MX","PostCode":"81249","GeoLocation":{"GeographicCoordinates":{"Latitude":"25.819045","Longitude":"-109.004752"}}}}},{"Identification":"999995267","SupportedLanguages":[],"SupportedCurrencies":["MXN"],"Branch":{"Identification":"N/A"},"Location":{"Site":{"Name":"GAP AEROPUERTO DE LOS MOCHIS"},"PostalAddress":{"AddressLine":["AEROPUERTO DE LOS MOCHIS"],"BuildingNumber":"KM 12.5","StreetName":"CARR. LOS MOCHIS-TOPOLOBAMPO","TownName":"AHOME","CountrySubDivision":["SINALOA"],"Country":"MX","PostCode":"81360","GeoLocation":{"GeographicCoordinates":{"Latitude":"25.689767","Longitude":"-109.082524"}}}}},{"Identification":"999991195","SupportedLanguages":[],"SupportedCurrencies":["MXN"],"Branch":{"Identification":"889"},"Location":{"Site":{"Name":"SUC.SORIANA MOCHIS (country)"},"PostalAddress":{"AddressLine":["FRACCIONAMIENTO LOS OLIVOS RUBEN JARAMILLO"],"BuildingNumber":"SN","StreetName":"Prolongacion Independencia Esq Blvd Zacatecas","TownName":"AHOME","CountrySubDivision":["SINALOA"],"Country":"MX","PostCode":"81230","GeoLocation":{"GeographicCoordinates":{"Latitude":"25.797779","Longitude":"-109.007554"}}}}},{"Identification":"999995331","SupportedLanguages":[],"SupportedCurrencies":["MXN"],"Branch":{"Identification":"N/A"},"Location":{"Site":{"Name":"LEY EXPRESS MORELOS"},"PostalAddress":{"AddressLine":["FRACC VILLA DE SANTIAGO"],"BuildingNumber":"399","StreetName":"PEDRO ANAYA","TownName":"AHOME","CountrySubDivision":["SINALOA"],"Country":"MX","PostCode":"81293","GeoLocation":{"GeographicCoordinates":{"Latitude":"25.763993","Longitude":"-108.998941"}}}}},{"Identification":"999995050","SupportedLanguages":[],"SupportedCurrencies":["MXN"],"Branch":{"Identification":"N/A"},"Location":{"Site":{"Name":"SORIANA HIPERMERCADO MOCHIS"},"PostalAddress":{"AddressLine":["JARAMILLO"],"BuildingNumber":"SIN NUMERO","StreetName":"INDEPENDENCIA","TownName":"AHOME","CountrySubDivision":["SINALOA"],"Country":"MX","PostCode":"81230","GeoLocation":{"GeographicCoordinates":{"Latitude":"25.800783","Longitude":"-109.014931"}}}}},{"Identification":"999991178","SupportedLanguages":[],"SupportedCurrencies":["MXN"],"Branch":{"Identification":"871"},"Location":{"Site":{"Name":"SUC. V.H. PLAZA (Rosales Los Mochis)"},"PostalAddress":{"AddressLine":["CENTRO"],"BuildingNumber":"PLAZA COME","StreetName":"BLVD. ANTONIO ROSALES","TownName":"AHOME","CountrySubDivision":["SINALOA"],"Country":"MX","PostCode":"81200","GeoLocation":{"GeographicCoordinates":{"Latitude":"25.79633","Longitude":"-108.996276"}}}}},{"Identification":"999990345","SupportedLanguages":[],"SupportedCurrencies":["MXN"],"Branch":{"Identification":"198"},"Location":{"Site":{"Name":"SUC. LOS MOCHIS LEYVA"},"PostalAddress":{"AddressLine":["CENTRO"],"BuildingNumber":"472 NTE.","StreetName":"GABRIEL LEYVA","TownName":"AHOME","CountrySubDivision":["SINALOA"],"Country":"MX","PostCode":"81200","GeoLocation":{"GeographicCoordinates":{"Latitude":"25.797309","Longitude":"-108.989687"}}}}},{"Identification":"999995265","SupportedLanguages":[],"SupportedCurrencies":["MXN"],"Branch":{"Identification":"N/A"},"Location":{"Site":{"Name":"CONSEJO DE LA JUDICATURA FEDERAL LOS MOCHIS"},"PostalAddress":{"AddressLine":["FRACC. LAS FUENTES"],"BuildingNumber":"2213","StreetName":"BLVD. ADOLFO LOPEZ MATEOS","TownName":"AHOME","CountrySubDivision":["SINALOA"],"Country":"MX","PostCode":"81223","GeoLocation":{"GeographicCoordinates":{"Latitude":"25.813264","Longitude":"-108.978798"}}}}},{"Identification":"999995094","SupportedLanguages":[],"SupportedCurrencies":["MXN"],"Branch":{"Identification":"N/A"},"Location":{"Site":{"Name":"BODEGA AURRERA HOSPITAL GENERAL"},"PostalAddress":{"AddressLine":["FRACC. ALAMOS"],"BuildingNumber":"1565 SUR","StreetName":"MACARIO GAXIOLA","TownName":"AHOME","CountrySubDivision":["SINALOA"],"Country":"MX","PostCode":"81280","GeoLocation":{"GeographicCoordinates":{"Latitude":"25.770242","Longitude":"-108.989839"}}}}},{"Identification":"999990344","SupportedLanguages":[],"SupportedCurrencies":["MXN"],"Branch":{"Identification":"197"},"Location":{"Site":{"Name":"SUC. LOS MOCHIS CENTRO"},"PostalAddress":{"AddressLine":["CENTRO"],"BuildingNumber":"NA","StreetName":"GABRIEL LEYVA","TownName":"AHOME","CountrySubDivision":["SINALOA"],"Country":"MX","PostCode":"81200","GeoLocation":{"GeographicCoordinates":{"Latitude":"25.790146","Longitude":"-108.994206"}}}}},{"Identification":"999995111","SupportedLanguages":[],"SupportedCurrencies":["MXN"],"Branch":{"Identification":"N/A"},"Location":{"Site":{"Name":"LEY FIESTA LAS PALMAS"},"PostalAddress":{"AddressLine":["CENTRO"],"BuildingNumber":"SIN NUMERO","StreetName":"AV. ALVARO OBREGON","TownName":"AHOME","CountrySubDivision":["SINALOA"],"Country":"MX","PostCode":"81200","GeoLocation":{"GeographicCoordinates":{"Latitude":"25.79032","Longitude":"-109.002272"}}}}},{"Identification":"999995336","SupportedLanguages":[],"SupportedCurrencies":["MXN"],"Branch":{"Identification":"N/A"},"Location":{"Site":{"Name":"HOSPITAL GENERAL MOCHIS"},"PostalAddress":{"AddressLine":["RAUL ROMANILLO"],"BuildingNumber":"1449 SUR","StreetName":"BVL MACARIO GAXIOLA","TownName":"AHOME","CountrySubDivision":["SINALOA"],"Country":"MX","PostCode":"81248","GeoLocation":{"GeographicCoordinates":{"Latitude":"25.771171","Longitude":"-108.989155"}}}}},{"Identification":"999995093","SupportedLanguages":[],"SupportedCurrencies":["MXN"],"Branch":{"Identification":"N/A"},"Location":{"Site":{"Name":"LA PILARICA MATRIZ"},"PostalAddress":{"AddressLine":["ZONA INDUSTRIAL LIBRAMIENTO"],"BuildingNumber":"KM 1621","StreetName":"CARRETERA INTERNACIONAL MEXICO NOGALES","TownName":"AHOME","CountrySubDivision":["SINALOA"],"Country":"MX","PostCode":"81255","GeoLocation":{"GeographicCoordinates":{"Latitude":"25.801722","Longitude":"-108.941474"}}}}},{"Identification":"999995045","SupportedLanguages":[],"SupportedCurrencies":["MXN"],"Branch":{"Identification":"N/A"},"Location":{"Site":{"Name":"SAMS CLUB LOS MOCHIS"},"PostalAddress":{"AddressLine":["JARDINES DE FATIMA"],"BuildingNumber":"SIN NUMERO","StreetName":"BLVD. ANTONIO ROSALES","TownName":"AHOME","CountrySubDivision":["SINALOA"],"Country":"MX","PostCode":"81226","GeoLocation":{"GeographicCoordinates":{"Latitude":"25.806466","Longitude":"-108.992536"}}}}},{"Identification":"999995057","SupportedLanguages":[],"SupportedCurrencies":["MXN"],"Branch":{"Identification":"N/A"},"Location":{"Site":{"Name":"LEY JIQUILPAN"},"PostalAddress":{"AddressLine":["INFONAVIT MACAPULE"],"BuildingNumber":"902","StreetName":"AV. LIBERTAD","TownName":"AHOME","CountrySubDivision":["SINALOA"],"Country":"MX","PostCode":"81220","GeoLocation":{"GeographicCoordinates":{"Latitude":"25.806921","Longitude":"-108.989483"}}}}},{"Identification":"999990343","SupportedLanguages":[],"SupportedCurrencies":["MXN"],"Branch":{"Identification":"197"},"Location":{"Site":{"Name":"SUC. LOS MOCHIS CENTRO"},"PostalAddress":{"AddressLine":["CENTRO"],"BuildingNumber":"NA","StreetName":"GABRIEL LEYVA","TownName":"AHOME","CountrySubDivision":["SINALOA"],"Country":"MX","PostCode":"81200","GeoLocation":{"GeographicCoordinates":{"Latitude":"25.790146","Longitude":"-108.994206"}}}}},{"Identification":"999995109","SupportedLanguages":[],"SupportedCurrencies":["MXN"],"Branch":{"Identification":"N/A"},"Location":{"Site":{"Name":"LEY TABACHINES"},"PostalAddress":{"AddressLine":["TABACHINES"],"BuildingNumber":"SIN NUMERO","StreetName":"LAZARO CAEDENAS","TownName":"AHOME","CountrySubDivision":["SINALOA"],"Country":"MX","PostCode":"81257","GeoLocation":{"GeographicCoordinates":{"Latitude":"25.789389","Longitude":"-108.975794"}}}}},{"Identification":"999995333","SupportedLanguages":[],"SupportedCurrencies":["MXN"],"Branch":{"Identification":"N/A"},"Location":{"Site":{"Name":"LEY EXPRESS CENTENARIO"},"PostalAddress":{"AddressLine":["FRACC RESIDENCIAL PALMIRA"],"BuildingNumber":"2880","StreetName":"CENTENARIO","TownName":"AHOME","CountrySubDivision":["SINALOA"],"Country":"MX","PostCode":"81233","GeoLocation":{"GeographicCoordinates":{"Latitude":"25.799619","Longitude":"-109.028674"}}}}},{"Identification":"999995264","SupportedLanguages":[],"SupportedCurrencies":["MXN"],"Branch":{"Identification":"N/A"},"Location":{"Site":{"Name":"LEY EXPRESS AHOME"},"PostalAddress":{"AddressLine":["VILLA AHOME"],"BuildingNumber":"SN","StreetName":"AV. CONSTITUCION","TownName":"AHOME","CountrySubDivision":["SINALOA"],"Country":"MX","PostCode":"81315","GeoLocation":{"GeographicCoordinates":{"Latitude":"25.921026","Longitude":"-109.174064"}}}}},{"Identification":"999992670","SupportedLanguages":[],"SupportedCurrencies":["MXN"],"Branch":{"Identification":"N/A"},"Location":{"Site":{"Name":"MUNICIPIO AHUAZOTEPEC"},"PostalAddress":{"AddressLine":["CENTRO"],"BuildingNumber":"SN","StreetName":"PALACIO MUNICIPAL","TownName":"AHUAZOTEPEC","CountrySubDivision":["PUEBLA"],"Country":"MX","PostCode":"73180","GeoLocation":{"GeographicCoordinates":{"Latitude":"20.046531","Longitude":"-98.163693"}}}}},{"Identification":"999994210","SupportedLanguages":[],"SupportedCurrencies":["MXN"],"Branch":{"Identification":"N/A"},"Location":{"Site":{"Name":"RESTAURANTE ARIZONA"},"PostalAddress":{"AddressLine":["CENTRO"],"BuildingNumber":"SN","StreetName":"MIGUEL AHUMADA","TownName":"AHUMADA","CountrySubDivision":["CHIHUAHUA"],"Country":"MX","PostCode":"32800","GeoLocation":{"GeographicCoordinates":{"Latitude":"30.623642","Longitude":"-106.514718"}}}}},{"Identification":"999991132","SupportedLanguages":[],"SupportedCurrencies":["MXN"],"Branch":{"Identification":"827"},"Location":{"Site":{"Name":"SUC. SAN MIGUEL DE ALLENDE"},"PostalAddress":{"AddressLine":["CENTRO"],"BuildingNumber":"31","StreetName":"SAN FRANCISCO","TownName":"ALLENDE","CountrySubDivision":["GUANAJUATO"],"Country":"MX","PostCode":"37700","GeoLocation":{"GeographicCoordinates":{"Latitude":"20.914359","Longitude":"-100.741635"}}}}},{"Identification":"999993693","SupportedLanguages":[],"SupportedCurrencies":["MXN"],"Branch":{"Identification":"N/A"},"Location":{"Site":{"Name":"SORIANA MERCADO SAN MIGUEL"},"PostalAddress":{"AddressLine":["LA LUCIERNAGA"],"BuildingNumber":"165","StreetName":"LIBRAM. JOSE MANUEL ZAVALA","TownName":"ALLENDE","CountrySubDivision":["GUANAJUATO"],"Country":"MX","PostCode":"37745","GeoLocation":{"GeographicCoordinates":{"Latitude":"20.903609","Longitude":"-100.727948"}}}}},{"Identification":"999991133","SupportedLanguages":[],"SupportedCurrencies":["MXN"],"Branch":{"Identification":"827"},"Location":{"Site":{"Name":"SUC. SAN MIGUEL DE ALLENDE"},"PostalAddress":{"AddressLine":["CENTRO"],"BuildingNumber":"31","StreetName":"SAN FRANCISCO","TownName":"ALLENDE","CountrySubDivision":["GUANAJUATO"],"Country":"MX","PostCode":"37700","GeoLocation":{"GeographicCoordinates":{"Latitude":"20.914359","Longitude":"-100.741635"}}}}},{"Identification":"999990424","SupportedLanguages":[],"SupportedCurrencies":["MXN"],"Branch":{"Identification":"256"},"Location":{"Site":{"Name":"SUC. ALLENDE"},"PostalAddress":{"AddressLine":["CENTRO"],"BuildingNumber":"SN","StreetName":"ALLENDE","TownName":"ALLENDE","CountrySubDivision":["NUEVO LEON"],"Country":"MX","PostCode":"67350","GeoLocation":{"GeographicCoordinates":{"Latitude":"25.278404","Longitude":"-100.017895"}}}}},{"Identification":"999990425","SupportedLanguages":[],"SupportedCurrencies":["MXN"],"Branch":{"Identification":"256"},"Location":{"Site":{"Name":"SUC. ALLENDE"},"PostalAddress":{"AddressLine":["CENTRO"],"BuildingNumber":"SN","StreetName":"ALLENDE","TownName":"ALLENDE","CountrySubDivision":["NUEVO LEON"],"Country":"MX","PostCode":"67350","GeoLocation":{"GeographicCoordinates":{"Latitude":"25.278404","Longitude":"-100.017895"}}}}},{"Identification":"999991102","SupportedLanguages":[],"SupportedCurrencies":["MXN"],"Branch":{"Identification":"797"},"Location":{"Site":{"Name":"SUC. ALTAMIRA"},"PostalAddress":{"AddressLine":["CENTRO"],"BuildingNumber":"112","StreetName":"AV. ALLENDE","TownName":"ALTAMIRA","CountrySubDivision":["TAMAULIPAS"],"Country":"MX","PostCode":"89600","GeoLocation":{"GeographicCoordinates":{"Latitude":"22.395913","Longitude":"-97.935368"}}}}},{"Identification":"999995378","SupportedLanguages":[],"SupportedCurrencies":["MXN"],"Branch":{"Identification":"N/A"},"Location":{"Site":{"Name":"SORIANA MERCADO ALTAMIRA"},"PostalAddress":{"AddressLine":["SIN COLONIA"],"BuildingNumber":"SIN NUMERO","StreetName":"BLVD. PUERTO INDUSTRIAL","TownName":"ALTAMIRA","CountrySubDivision":["TAMAULIPAS"],"Country":"MX","PostCode":"89600","GeoLocation":{"GeographicCoordinates":{"Latitude":"22.395732","Longitude":"-97.932021"}}}}},{"Identification":"999995366","SupportedLanguages":[],"SupportedCurrencies":["MXN"],"Branch":{"Identification":"N/A"},"Location":{"Site":{"Name":"TIENDAS DE DESCUENTO ARTELI (NORTE)"},"PostalAddress":{"AddressLine":["CENTRO"],"BuildingNumber":"KM. 1.15","StreetName":"CARR. TAMPICO - MANTE","TownName":"ALTAMIRA","CountrySubDivision":["TAMAULIPAS"],"Country":"MX","PostCode":"89600","GeoLocation":{"GeographicCoordinates":{"Latitude":"22.326502","Longitude":"-97.874181"}}}}},{"Identification":"999995379","SupportedLanguages":[],"SupportedCurrencies":["MXN"],"Branch":{"Identification":"N/A"},"Location":{"Site":{"Name":"OXXO ARBOLEDAS"},"PostalAddress":{"AddressLine":["FRACC. ARBOLEDAS"],"BuildingNumber":"2","StreetName":"VIALIDAD PERIMETRO DUPORT","TownName":"ALTAMIRA","CountrySubDivision":["TAMAULIPAS"],"Country":"MX","PostCode":"89600","GeoLocation":{"GeographicCoordinates":{"Latitude":"22.387519","Longitude":"-97.91236"}}}}},{"Identification":"999995431","SupportedLanguages":[],"SupportedCurrencies":["MXN"],"Branch":{"Identification":"N/A"},"Location":{"Site":{"Name":"BASF INTERSERVICIOS ALTAMIRA"},"PostalAddress":{"AddressLine":["PUERTO IND. ALTAMIRA"],"BuildingNumber":"KM 1-800","StreetName":"BLVD. DE LOS RIOS","TownName":"ALTAMIRA","CountrySubDivision":["TAMAULIPAS"],"Country":"MX","PostCode":"89600","GeoLocation":{"GeographicCoordinates":{"Latitude":"22.417928","Longitude":"-97.888939"}}}}},{"Identification":"999995419","SupportedLanguages":[],"SupportedCurrencies":["MXN"],"Branch":{"Identification":"N/A"},"Location":{"Site":{"Name":"POSCO MEXICO, S.A. DE C.V."},"PostalAddress":{"AddressLine":["PUERTO INDUSTRIAL"],"BuildingNumber":"SIN NUMERO","StreetName":"BLVD. DE LOS RIOS","TownName":"ALTAMIRA","CountrySubDivision":["TAMAULIPAS"],"Country":"MX","PostCode":"89600","GeoLocation":{"GeographicCoordinates":{"Latitude":"22.484818","Longitude":"-97.903266"}}}}},{"Identification":"999991103","SupportedLanguages":[],"SupportedCurrencies":["MXN"],"Branch":{"Identification":"797"},"Location":{"Site":{"Name":"SUC. ALTAMIRA"},"PostalAddress":{"AddressLine":["CENTRO"],"BuildingNumber":"112","StreetName":"AV. ALLENDE","TownName":"ALTAMIRA","CountrySubDivision":["TAMAULIPAS"],"Country":"MX","PostCode":"89600","GeoLocation":{"GeographicCoordinates":{"Latitude":"22.395913","Longitude":"-97.935368"}}}}},{"Identification":"999994238","SupportedLanguages":[],"SupportedCurrencies":["MXN"],"Branch":{"Identification":"N/A"},"Location":{"Site":{"Name":"CFE  LAGUNA VERDE"},"PostalAddress":{"AddressLine":["LAGUNA VERDE"],"BuildingNumber":"KM 42.5","StreetName":"CARRETERA FEDERAL CARDEL-NAUTLA","TownName":"ALTO LUCERO","CountrySubDivision":["VERACRUZ"],"Country":"MX","PostCode":"91476","GeoLocation":{"GeographicCoordinates":{"Latitude":"19.721689","Longitude":"-96.407738"}}}}},{"Identification":"999994350","SupportedLanguages":[],"SupportedCurrencies":["MXN"],"Branch":{"Identification":"N/A"},"Location":{"Site":{"Name":"HOSPITAL DE ALTO LUCERO"},"PostalAddress":{"AddressLine":["CENTRO"],"BuildingNumber":"SN","StreetName":"FRAY PEDRO DE GANTE","TownName":"ALTO LUCERO","CountrySubDivision":["VERACRUZ"],"Country":"MX","PostCode":"91465","GeoLocation":{"GeographicCoordinates":{"Latitude":"19.624239","Longitude":"-96.736106"}}}}},{"Identification":"999994018","SupportedLanguages":[],"SupportedCurrencies":["MXN"],"Branch":{"Identification":"N/A"},"Location":{"Site":{"Name":"C.F.E. GERENCIA DE CENTRALES NUCLEOELECTRICAS"},"PostalAddress":{"AddressLine":["ALTO LUCERO"],"BuildingNumber":"KM 142.5","StreetName":"CARRETERA CARDEL-NAUTLA","TownName":"ALTO LUCERO","CountrySubDivision":["VERACRUZ"],"Country":"MX","PostCode":"91680","GeoLocation":{"GeographicCoordinates":{"Latitude":"19.720927","Longitude":"-96.407771"}}}}},{"Identification":"999991587","SupportedLanguages":[],"SupportedCurrencies":["MXN"],"Branch":{"Identification":"1849"},"Location":{"Site":{"Name":"SUC. ALVARADO"},"PostalAddress":{"AddressLine":["CENTRO"],"BuildingNumber":"31","StreetName":"AV JUAN SOTO","TownName":"ALVARADO","CountrySubDivision":["VERACRUZ"],"Country":"MX","PostCode":"95270","GeoLocation":{"GeographicCoordinates":{"Latitude":"18.766294","Longitude":"-95.759403"}}}}},{"Identification":"999991586","SupportedLanguages":[],"SupportedCurrencies":["MXN"],"Branch":{"Identification":"1849"},"Location":{"Site":{"Name":"SUC. ALVARADO"},"PostalAddress":{"AddressLine":["CENTRO"],"BuildingNumber":"31","StreetName":"AV JUAN SOTO","TownName":"ALVARADO","CountrySubDivision":["VERACRUZ"],"Country":"MX","PostCode":"95270","GeoLocation":{"GeographicCoordinates":{"Latitude":"18.766294","Longitude":"-95.759403"}}}}},{"Identification":"999994197","SupportedLanguages":[],"SupportedCurrencies":["MXN"],"Branch":{"Identification":"N/A"},"Location":{"Site":{"Name":"OXXO ALVARO OBREGON"},"PostalAddress":{"AddressLine":["ALVARO OBREGON"],"BuildingNumber":"33","StreetName":"AQUILES SERDAN","TownName":"ALVARO OBREGON","CountrySubDivision":["MICHOACAN"],"Country":"MX","PostCode":"58920","GeoLocation":{"GeographicCoordinates":{"Latitude":"19.829078","Longitude":"-101.038414"}}}}},{"Identification":"999993514","SupportedLanguages":[],"SupportedCurrencies":["MXN"],"Branch":{"Identification":"N/A"},"Location":{"Site":{"Name":"C.F.E. SUBDIRECCION DE ENERGETICOS Y SEGURIDAD"},"PostalAddress":{"AddressLine":["JARDINES DEL PEDREGAL"],"BuildingNumber":"4156","StreetName":"PERIFERICO SUR","TownName":"ALVARO OBREGON","CountrySubDivision":["CD MEXICO"],"Country":"MX","PostCode":"1800","GeoLocation":{"GeographicCoordinates":{"Latitude":"19.306583","Longitude":"-99.208398"}}}}},{"Identification":"999991416","SupportedLanguages":[],"SupportedCurrencies":["MXN"],"Branch":{"Identification":"1157"},"Location":{"Site":{"Name":"SUC. TIZAPAN SAN ANGEL"},"PostalAddress":{"AddressLine":["TIZAPAN"],"BuildingNumber":"34","StreetName":"GUERRERO","TownName":"ALVARO OBREGON","CountrySubDivision":["CD MEXICO"],"Country":"MX","PostCode":"1090","GeoLocation":{"GeographicCoordinates":{"Latitude":"19.340039","Longitude":"-99.199578"}}}}},{"Identification":"999991912","SupportedLanguages":[],"SupportedCurrencies":["MXN"],"Branch":{"Identification":"31490"},"Location":{"Site":{"Name":"MOD PODER JUDICIAL FEDERAL"},"PostalAddress":{"AddressLine":["SAN ANGEL"],"BuildingNumber":"-","StreetName":"PERIFERICO SUR BLVD. ADOLFO LOPEZ MATEOS","TownName":"ALVARO OBREGON","CountrySubDivision":["CD MEXICO"],"Country":"MX","PostCode":"1760","GeoLocation":{"GeographicCoordinates":{"Latitude":"19.352201","Longitude":"-99.201138"}}}}},{"Identification":"999994196","SupportedLanguages":[],"SupportedCurrencies":["MXN"],"Branch":{"Identification":"N/A"},"Location":{"Site":{"Name":"EMERSON ELECTRIC DE MEXICO SA DE CV"},"PostalAddress":{"AddressLine":["SAN PEDRO DE LOS PINOS"],"BuildingNumber":"145","StreetName":"CALLE 10","TownName":"ALVARO OBREGON","CountrySubDivision":["CD MEXICO"],"Country":"MX","PostCode":"1180","GeoLocation":{"GeographicCoordinates":{"Latitude":"19.390542","Longitude":"-99.193609"}}}}},{"Identification":"999990056","SupportedLanguages":[],"SupportedCurrencies":["MXN"],"Branch":{"Identification":"28"},"Location":{"Site":{"Name":"SUC. SAN ANGEL"},"PostalAddress":{"AddressLine":["FLORIDA"],"BuildingNumber":"1862","StreetName":"AV. INSURGENTES SUR","TownName":"ALVARO OBREGON","CountrySubDivision":["CD MEXICO"],"Country":"MX","PostCode":"1030","GeoLocation":{"GeographicCoordinates":{"Latitude":"19.355047","Longitude":"-99.184826"}}}}},{"Identification":"999991298","SupportedLanguages":[],"SupportedCurrencies":["MXN"],"Branch":{"Identification":"997"},"Location":{"Site":{"Name":"SUC. CONSEJO DE LA JUDICA"},"PostalAddress":{"AddressLine":["SAN ANGEL"],"BuildingNumber":"2417","StreetName":"AV. INSURGENTES SUR","TownName":"ALVARO OBREGON","CountrySubDivision":["CD MEXICO"],"Country":"MX","PostCode":"1000","GeoLocation":{"GeographicCoordinates":{"Latitude":"19.34037","Longitude":"-99.190529"}}}}},{"Identification":"999991741","SupportedLanguages":[],"SupportedCurrencies":["MXN"],"Branch":{"Identification":"3025"},"Location":{"Site":{"Name":"SUC. GUADALUPE INN"},"PostalAddress":{"AddressLine":["SAN ANGEL"],"BuildingNumber":"1999","StreetName":"AV. INSURGENTES SUR","TownName":"ALVARO OBREGON","CountrySubDivision":["CD MEXICO"],"Country":"MX","PostCode":"1000","GeoLocation":{"GeographicCoordinates":{"Latitude":"19.350871","Longitude":"-99.186707"}}}}},{"Identification":"999994425","SupportedLanguages":[],"SupportedCurrencies":["MXN"],"Branch":{"Identification":"N/A"},"Location":{"Site":{"Name":"MEXICO  PROYECTOS Y DESARROLLOS SERVICIOS SA DE CV"},"PostalAddress":{"AddressLine":["SANTA FE"],"BuildingNumber":"540","StreetName":"AVENIDA JAVIER BARROS SIERRA","TownName":"ALVARO OBREGON","CountrySubDivision":["CD MEXICO"],"Country":"MX","PostCode":"1219","GeoLocation":{"GeographicCoordinates":{"Latitude":"19.364789","Longitude":"-99.25965"}}}}},{"Identification":"999993798","SupportedLanguages":[],"SupportedCurrencies":["MXN"],"Branch":{"Identification":"N/A"},"Location":{"Site":{"Name":"CIRCULO K SAN JACINTO"},"PostalAddress":{"AddressLine":["SAN ANGEL"],"BuildingNumber":"8","StreetName":"PLAZA SAN JACINTO","TownName":"ALVARO OBREGON","CountrySubDivision":["CD MEXICO"],"Country":"MX","PostCode":"1000","GeoLocation":{"GeographicCoordinates":{"Latitude":"19.344541","Longitude":"-99.191394"}}}}},{"Identification":"999991625","SupportedLanguages":[],"SupportedCurrencies":["MXN"],"Branch":{"Identification":"1908"},"Location":{"Site":{"Name":"SUC PJF REVOLUCION"},"PostalAddress":{"AddressLine":["GUADALUPE INN"],"BuildingNumber":"1508","StreetName":"AV REVOLUCION","TownName":"ALVARO OBREGON","CountrySubDivision":["CD MEXICO"],"Country":"MX","PostCode":"1020","GeoLocation":{"GeographicCoordinates":{"Latitude":"19.352428","Longitude":"-99.189609"}}}}},{"Identification":"999990821","SupportedLanguages":[],"SupportedCurrencies":["MXN"],"Branch":{"Identification":"561"},"Location":{"Site":{"Name":"SUC. DESIERTO DE LOS LEON"},"PostalAddress":{"AddressLine":["ALCANTARILLA"],"BuildingNumber":"5383","StreetName":"CALZ. DESIERTO DE LOS LEONES","TownName":"ALVARO OBREGON","CountrySubDivision":["CD MEXICO"],"Country":"MX","PostCode":"1700","GeoLocation":{"GeographicCoordinates":{"Latitude":"19.338827","Longitude":"-99.242534"}}}}},{"Identification":"999991300","SupportedLanguages":[],"SupportedCurrencies":["MXN"],"Branch":{"Identification":"1007"},"Location":{"Site":{"Name":"S.H.C.P. CONSTITUYENTES"},"PostalAddress":{"AddressLine":["BELEM DE LAS FLORES"],"BuildingNumber":"1001","StreetName":"AV. CONSTITUYENTES","TownName":"ALVARO OBREGON","CountrySubDivision":["CD MEXICO"],"Country":"MX","PostCode":"11950","GeoLocation":{"GeographicCoordinates":{"Latitude":"19.397492","Longitude":"-99.215474"}}}}},{"Identification":"999993547","SupportedLanguages":[],"SupportedCurrencies":["MXN"],"Branch":{"Identification":"N/A"},"Location":{"Site":{"Name":"PGR OIC"},"PostalAddress":{"AddressLine":["TIZAPAN SAN ANGEL"],"BuildingNumber":"101","StreetName":"BLVD. ADOLFO LOPEZ MATEOS","TownName":"ALVARO OBREGON","CountrySubDivision":["CD MEXICO"],"Country":"MX","PostCode":"1090","GeoLocation":{"GeographicCoordinates":{"Latitude":"19.335231","Longitude":"-99.207076"}}}}},{"Identification":"999992606","SupportedLanguages":[],"SupportedCurrencies":["MXN"],"Branch":{"Identification":"N/A"},"Location":{"Site":{"Name":"ECONOMIA INSURGENTES"},"PostalAddress":{"AddressLine":["FLORIDA"],"BuildingNumber":"1940","StreetName":"AV. INSURGENTES SUR","TownName":"ALVARO OBREGON","CountrySubDivision":["CD MEXICO"],"Country":"MX","PostCode":"1030","GeoLocation":{"GeographicCoordinates":{"Latitude":"19.352653","Longitude":"-99.185519"}}}}},{"Identification":"999993444","SupportedLanguages":[],"SupportedCurrencies":["MXN"],"Branch":{"Identification":"N/A"},"Location":{"Site":{"Name":"SUPERAMA AXOMIATLA"},"PostalAddress":{"AddressLine":["SAN ANTONIO TARANGO"],"BuildingNumber":"1819","StreetName":"CALZADA DE LAS AGUILAS","TownName":"ALVARO OBREGON","CountrySubDivision":["CD MEXICO"],"Country":"MX","PostCode":"1620","GeoLocation":{"GeographicCoordinates":{"Latitude":"19.342353","Longitude":"-99.248385"}}}}},{"Identification":"999991727","SupportedLanguages":[],"SupportedCurrencies":["MXN"],"Branch":{"Identification":"3016"},"Location":{"Site":{"Name":"SUC. TORRE ZAFIRO"},"PostalAddress":{"AddressLine":["JARDINES DEL PEDREGAL"],"BuildingNumber":"4124","StreetName":"PERIFERICO SUR","TownName":"ALVARO OBREGON","CountrySubDivision":["CD MEXICO"],"Country":"MX","PostCode":"1900","GeoLocation":{"GeographicCoordinates":{"Latitude":"19.306792","Longitude":"-99.209866"}}}}},{"Identification":"999993957","SupportedLanguages":[],"SupportedCurrencies":["MXN"],"Branch":{"Identification":"N/A"},"Location":{"Site":{"Name":"TELMEX UNIVERSIDAD"},"PostalAddress":{"AddressLine":["FLORIDA"],"BuildingNumber":"1311","StreetName":"AV. UNIVERSIDAD","TownName":"ALVARO OBREGON","CountrySubDivision":["CD MEXICO"],"Country":"MX","PostCode":"1030","GeoLocation":{"GeographicCoordinates":{"Latitude":"19.359235","Longitude":"-99.172225"}}}}},{"Identification":"999994338","SupportedLanguages":[],"SupportedCurrencies":["MXN"],"Branch":{"Identification":"N/A"},"Location":{"Site":{"Name":"INGENIERIA EN SERVICIO DE INFORMATICA"},"PostalAddress":{"AddressLine":["TLACOPAC"],"BuildingNumber":"2259","StreetName":"ADOLFO LOPEZ MATEOS","TownName":"ALVARO OBREGON","CountrySubDivision":["CD MEXICO"],"Country":"MX","PostCode":"1049","GeoLocation":{"GeographicCoordinates":{"Latitude":"19.355837","Longitude":"-99.198613"}}}}},{"Identification":"999993221","SupportedLanguages":[],"SupportedCurrencies":["MXN"],"Branch":{"Identification":"N/A"},"Location":{"Site":{"Name":"C.F.E. ALVARO OBREGON"},"PostalAddress":{"AddressLine":["OLIVAR DE LOS PADRES"],"BuildingNumber":"11","StreetName":"DON MANUELITO","TownName":"ALVARO OBREGON","CountrySubDivision":["CD MEXICO"],"Country":"MX","PostCode":"1780","GeoLocation":{"GeographicCoordinates":{"Latitude":"19.33902","Longitude":"-99.21476"}}}}},{"Identification":"999993986","SupportedLanguages":[],"SupportedCurrencies":["MXN","USD"],"Branch":{"Identification":"N/A"},"Location":{"Site":{"Name":"NISSAN MEXICANA SA DE CV CORPORATIVO INSURGENTES"},"PostalAddress":{"AddressLine":["FLORIDA"],"BuildingNumber":"1958","StreetName":"AV INSURGENTES SUR","TownName":"ALVARO OBREGON","CountrySubDivision":["CD MEXICO"],"Country":"MX","PostCode":"1030","GeoLocation":{"GeographicCoordinates":{"Latitude":"19.352061","Longitude":"-99.185652"}}}}},{"Identification":"999991666","SupportedLanguages":[],"SupportedCurrencies":["MXN"],"Branch":{"Identification":"1964"},"Location":{"Site":{"Name":"DEL PARQUE SANTA FE"},"PostalAddress":{"AddressLine":["CENTRO DE LA CIUDAD SANTA FE"],"BuildingNumber":"NO 1450 LO","StreetName":"GUILLERMO GONZALEZ CAMARENA","TownName":"ALVARO OBREGON","CountrySubDivision":["CD MEXICO"],"Country":"MX","PostCode":"1210","GeoLocation":{"GeographicCoordinates":{"Latitude":"19.364817","Longitude":"-99.265483"}}}}},{"Identification":"999993716","SupportedLanguages":[],"SupportedCurrencies":["MXN"],"Branch":{"Identification":"N/A"},"Location":{"Site":{"Name":"7 ELEVEN GONZALEZ CAMARENA"},"PostalAddress":{"AddressLine":["CENTRO GUDAY SANTA FE"],"BuildingNumber":"1100","StreetName":"GUILLERMO GOONZALEZ CAMARENA","TownName":"ALVARO OBREGON","CountrySubDivision":["CD MEXICO"],"Country":"MX","PostCode":"1210","GeoLocation":{"GeographicCoordinates":{"Latitude":"19.365492","Longitude":"-99.263706"}}}}},{"Identification":"999992123","SupportedLanguages":[],"SupportedCurrencies":["MXN"],"Branch":{"Identification":"N/A"},"Location":{"Site":{"Name":"COM. NAL. DE SEGUROS Y FIANZAS"},"PostalAddress":{"AddressLine":["GUADALUPE INN"],"BuildingNumber":"1971","StreetName":"AV. INSURGENTES SUR","TownName":"ALVARO OBREGON","CountrySubDivision":["CD MEXICO"],"Country":"MX","PostCode":"1020","GeoLocation":{"GeographicCoordinates":{"Latitude":"19.352207","Longitude":"-99.187521"}}}}},{"Identification":"999994302","SupportedLanguages":[],"SupportedCurrencies":["MXN"],"Branch":{"Identification":"N/A"},"Location":{"Site":{"Name":"CONSEJO DE LA JUDICATURA FEDERAL PRISMA 2"},"PostalAddress":{"AddressLine":["SAN ANGEL"],"BuildingNumber":"2065","StreetName":"AVENIDA INSURGENTES SUR","TownName":"ALVARO OBREGON","CountrySubDivision":["CD MEXICO"],"Country":"MX","PostCode":"1000","GeoLocation":{"GeographicCoordinates":{"Latitude":"19.348491","Longitude":"-99.187452"}}}}},{"Identification":"999994049","SupportedLanguages":[],"SupportedCurrencies":["MXN"],"Branch":{"Identification":"N/A"},"Location":{"Site":{"Name":"ADIDAS INDUSTRIAL, S.A. DE C.V."},"PostalAddress":{"AddressLine":["JARDIN DEL PEDREGAL"],"BuildingNumber":"3642","StreetName":"BLVD. ADOLFO RUIZ CORTINES","TownName":"ALVARO OBREGON","CountrySubDivision":["CD MEXICO"],"Country":"MX","PostCode":"1900","GeoLocation":{"GeographicCoordinates":{"Latitude":"19.316421","Longitude":"-99.220624"}}}}},{"Identification":"999990120","SupportedLanguages":[],"SupportedCurrencies":["MXN"],"Branch":{"Identification":"59"},"Location":{"Site":{"Name":"SUC. PLAZA INN"},"PostalAddress":{"AddressLine":["GUADALUPE INN"],"BuildingNumber":"1971","StreetName":"AV. INSURGENTES","TownName":"ALVARO OBREGON","CountrySubDivision":["CD MEXICO"],"Country":"MX","PostCode":"1020","GeoLocation":{"GeographicCoordinates":{"Latitude":"19.35178","Longitude":"-99.186402"}}}}},{"Identification":"999992194","SupportedLanguages":[],"SupportedCurrencies":["MXN"],"Branch":{"Identification":"N/A"},"Location":{"Site":{"Name":"ETAL TACUBA"},"PostalAddress":{"AddressLine":["BELLAVISTA"],"BuildingNumber":"52","StreetName":"FELIPE ANGELES","TownName":"ALVARO OBREGON","CountrySubDivision":["CD MEXICO"],"Country":"MX","PostCode":"1140","GeoLocation":{"GeographicCoordinates":{"Latitude":"19.394998","Longitude":"-99.191743"}}}}},{"Identification":"999991817","SupportedLanguages":[],"SupportedCurrencies":["MXN"],"Branch":{"Identification":"3080"},"Location":{"Site":{"Name":"SUC. SAMARA"},"PostalAddress":{"AddressLine":["SANTA FE"],"BuildingNumber":"94","StreetName":"AV. SANTA FE","TownName":"ALVARO OBREGON","CountrySubDivision":["CD MEXICO"],"Country":"MX","PostCode":"1210","GeoLocation":{"GeographicCoordinates":{"Latitude":"19.36777","Longitude":"-99.258455"}}}}},{"Identification":"999993947","SupportedLanguages":[],"SupportedCurrencies":["MXN"],"Branch":{"Identification":"N/A"},"Location":{"Site":{"Name":"SEGURO POPULAR"},